"id","extralabel","name","latitude","longitude"
"SECst","Station","Stockholms central","59.33","18.0573"
"SEG","Station","Göteborg Central","57.7089","11.9739"
"SEHbgb","ShuntingYard","Helsingborgs godsbangård","56.0271","12.7219"
"SEHrbg","ShuntingYard","Hallsbergs rangerbangård","59.0587","15.0593"
"SEJögb","ShuntingYard","Jönköpings godsbangård","57.7641","14.1732"
"SEMgb","ShuntingYard","Malmö godsbangård","55.622","13.051"
"SESär","ShuntingYard","Sävenäs rangerbangård","57.7301","12.0462"
"SETm","ShuntingYard","Tomteboda bangård","59.3457","18.0203"
"SEVåv","ShuntingYard","Västerås västra","59.5956","16.5077"
"SEÅggb","ShuntingYard","Ånge godsbangård","62.5254","15.6428"
"SEA","SmallStation","Alingsås","57.9269","12.5322"
"SEAal","Junction","Annedal","56.1276","12.9296"
"SEAb","SmallStation","Arbrå","61.471","16.3798"
"SEAgb","Junction","Agnesberg","57.7811","12.0071"
"SEAgg","Junction","Algutsgården","57.9881","12.6519"
"SEAhm","Junction","Aleholm","57.3982","14.6635"
"SEAjr","SmallStation","Arvidsjaur","65.5887","19.1685"
"SEAk","SmallStation","Abisko östra","68.3486","18.8303"
"SEAl","Junction","Arlöv","55.6339","13.0684"
"SEAlh","SmallStation","Alvhem","58.0108","12.1577"
"SEAlä","Junction","Almnäs","59.1694","17.5078"
"SEAm","Junction","Almedal","57.684","12.004"
"SEAmk","Junction","Arnemark","65.4913","21.2179"
"SEAn","Junction","Arvån","64.5584","19.003"
"SEAnö","Junction","Anundsjö","63.4266","18.1438"
"SEAp","Junction","Aspeå","63.3877","17.5136"
"SEApd","Junction","Aplared","57.6512","13.0744"
"SEApt","Junction","Aptas","67.7641","20.4434"
"SEAr","SmallStation","Arvika","59.6536","12.5908"
"SEAra","Junction","Arnäsvall","63.308","18.7859"
"SEArb","SmallStation","Arboga","59.3972","15.8405"
"SEArnc","SmallStation","Arlanda central","59.6491","17.9285"
"SEArne","Junction","Arlanda nedre","59.6327","17.9231"
"SEArnn","SmallStation","Arlanda norra","59.6515","17.9298"
"SEArns","SmallStation","Arlanda södra","59.6468","17.9283"
"SEAtp","Junction","Attarp","56.1372","13.8487"
"SEAv","SmallStation","Alvesta","56.898","14.5562"
"SEAva","SmallStation","Avaviken","65.6051","18.6509"
"SEAvky","SmallStation","Avesta Krylbo","60.1295","16.2161"
"SEAx","Junction","Axmarby","61.0074","17.1136"
"SEAy","Junction","Alby","62.4901","15.4747"
"SEAä","Junction","Alväng","59.379","15.566"
"SEB","Junction","Björnlunda","59.0656","17.1547"
"SEBaa","SmallStation","Barkåkra","56.2937","12.8246"
"SEBaö","Junction","Backsjön","63.3247","17.2995"
"SEBbe","Junction","Blyberg","61.1533","14.1378"
"SEBdn","SmallStation","Boden central","65.8288","21.7081"
"SEBdo","Junction","Broddbo","59.9869","16.4819"
"SEBds","Junction","Bodens södra","65.8255","21.6474"
"SEBe","Junction","Backe","63.8073","16.4269"
"SEBen","Junction","Bredviken","65.8374","23.2332"
"SEBet","Junction","Bruksberget","66.0036","22.7136"
"SEBf","SmallStation","Brunflo","63.076","14.8326"
"SEBfo","SmallStation","Billingsfors","58.982","12.2497"
"SEBfs","Junction","Bergfors","68.1473","19.7827"
"SEBg","SmallStation","Berga","57.2165","16.0334"
"SEBgs","Junction","Bryngenäs","57.8978","12.4876"
"SEBgv","Junction","Bälgviken","59.2527","16.4606"
"SEBhb","SmallStation","Bräkne-Hoby","56.2314","15.1161"
"SEBhs","SmallStation","Bohus","57.864","12.0196"
"SEBia","Junction","Birsta","62.4471","17.3126"
"SEBib","SmallStation","Billeberga","55.8838","12.9958"
"SEBih","SmallStation","Billesholm","56.0564","12.9768"
"SEBj","Junction","Björna","63.5514","18.5969"
"SEBja","Junction","Bjästa","63.2116","18.4445"
"SEBjb","Junction","Björneborg","59.2444","14.2504"
"SEBjh","Junction","Bjurhem","58.4285","12.2801"
"SEBjm","SmallStation","Bjärnum","56.2929","13.7041"
"SEBjn","Junction","Björnkulla","59.2038","17.9286"
"SEBjuv","SmallStation","Bjuv","56.0826","12.9111"
"SEBjö","Junction","Björnsjö","63.5077","18.4603"
"SEBkb","SmallStation","Barkarby","59.4054","17.8637"
"SEBld","Junction","Blädinge","56.8415","14.5044"
"SEBlgc","SmallStation","Borlänge central","60.4829","15.4255"
"SEBln","SmallStation","Björkliden","68.4084","18.6864"
"SEBlv","SmallStation","Burlöv","55.6409","13.0804"
"SEBma","SmallStation","Blomstermåla","56.9807","16.3321"
"SEBml","SmallStation","Bromölla","56.0672","14.4816"
"SEBmo","Junction","Båramo","57.4536","14.0907"
"SEBn","SmallStation","Bollnäs","61.3495","16.3917"
"SEBna","Junction","Brunna","59.8614","17.4289"
"SEBoa","SmallStation","Borgstena","57.883","13.0148"
"SEBoda","Junction","Boda","61.5905","17.0081"
"SEBof","SmallStation","Bofors","59.3333","14.5469"
"SEBom","Junction","Bomansberget","60.6508","17.2418"
"SEBor","SmallStation","Bor","57.1161","14.1686"
"SEBorn","Junction","Born","61.1353","14.643"
"SEBoy","SmallStation","Bollebygd","57.6675","12.57"
"SEBp","Junction","Brännarp","56.7881","12.7281"
"SEBra","Junction","Brista","59.61","17.8672"
"SEBrd","Junction","Brännland","63.8806","20.0566"
"SEBre","Junction","Bränninge","59.1405","17.6352"
"SEBrg","Junction","Brännberg","65.7831","21.2257"
"SEBrh","SmallStation","Brattheden","59.788","16.1811"
"SEBrl","Junction","Brålanda","58.56","12.349"
"SEBrn","Junction","Brånan","62.6938","14.409"
"SEBrny","Junction","Bro Nygård","59.4977","17.672"
"SEBro","SmallStation","Bro","59.5123","17.633"
"SEBrs","Junction","Brattsbacka","63.7848","19.1858"
"SEBry","SmallStation","Bankeryd","57.8604","14.1282"
"SEBrå","Junction","Bjurå","66.0356","22.1495"
"SEBsb","Junction","Bensjöbacken","62.7036","15.4543"
"SEBsc","SmallStation","Borås central","57.7203","12.931"
"SEBsd","Junction","Brunnsgård","57.4226","15.1069"
"SEBsg","SmallStation","Bispgården","63.0287","16.6209"
"SEBst","SmallStation","Bastuträsk","64.789","20.0415"
"SEBsä","SmallStation","Bjärka-Säby","58.2706","15.7528"
"SEBt","Junction","Baggetorp","59.0096","16.0649"
"SEBtb","Junction","Brattby","63.911","19.8816"
"SEBtp","Junction","Biskopstorp","56.7496","12.8589"
"SEBtå","Junction","Betåsen","63.552","16.8137"
"SEBu","Junction","Brunsbergstunneln","59.6224","12.9466"
"SEBud","Junction","Buddbyn","65.863","21.7084"
"SEBva","Junction","Barva","59.3434","16.7928"
"SEBvr","Junction","Blackvreten","59.6076","17.9076"
"SEBx","SmallStation","Boxholm","58.1929","15.0536"
"SEBy","Junction","Byvalla","60.347","16.4163"
"SEByä","Junction","Byälven","59.1386","12.9221"
"SEBål","SmallStation","Bålsta","59.5694","17.5319"
"SEBån","SmallStation","Båstad norra","56.4308","12.9052"
"SEBä","SmallStation","Bräcke","62.75","15.4176"
"SEBäb","SmallStation","Bäckebron","59.661","13.1662"
"SEBäf","Junction","Bäckefors","58.8043","12.1593"
"SEBög","Junction","Brännögård","57.0055","13.1008"
"SEBön","Junction","Bodsjön","62.8146","15.4213"
"SEBöo","SmallStation","Björbo","60.4531","14.7288"
"SECas","Junction","Callans såg","62.5135","15.993"
"SECg","SmallStation","Charlottenberg","59.8831","12.2993"
"SECk","SmallStation","Karlskrona central","56.1671","15.5853"
"SECr","SmallStation","Kristianstads central","56.0322","14.1508"
"SECrgb","Junction","Kristianstad GBG","56.0412","14.1569"
"SECrs","Junction","Kristianstads södra","56.0217","14.1631"
"SED","Junction","Degerön","58.7015","15.1518"
"SEDat","Junction","Dammstorp","55.8019","13.2832"
"SEDbn","Junction","Degerbäcken","65.8395","21.4018"
"SEDg","SmallStation","Degerfors","59.2289","14.4404"
"SEDgm","Junction","Degermyr","63.8719","19.6059"
"SEDgn","Junction","Dalgränsen","60.3828","16.4535"
"SEDgö","Junction","Daglösen","59.6421","14.1914"
"SEDiö","Junction","Diö norra","56.6361","14.2211"
"SEDj","SmallStation","Dala-Järna","60.5477","14.3627"
"SEDk","Junction","Dockmyr","62.9546","15.739"
"SEDl","SmallStation","Dingle","58.5296","11.5791"
"SEDld","SmallStation","Dals Långed","58.9234","12.3062"
"SEDma","Junction","Dannemora","60.1961","17.848"
"SEDmn","Junction","Domnarvet","60.4937","15.4458"
"SEDn","Junction","Dagarn","59.9081","15.7171"
"SEDns","Junction","Dynäs","62.9663","17.7377"
"SEDrt","Junction","Dals Rostock","58.7135","12.3553"
"SEDt","SmallStation","Dingtuna","59.5716","16.3898"
"SEDta","SmallStation","Dorotea","64.2582","16.4059"
"SEDu","SmallStation","Duved","63.3898","12.9175"
"SEDuo","Junction","Duvbo","59.3707","17.9322"
"SEDy","Junction","Dysjön","62.628","15.5155"
"SEDån","Junction","Dånviken","59.1899","17.7143"
"SEDöe","Junction","Drömme","63.2505","18.2202"
"SEDöl","Junction","Döljebro","60.994","16.6869"
"SEE","SmallStation","Eslöv","55.8377","13.3054"
"SEEa","Junction","Eldsberga","56.5909","12.9981"
"SEEbg","Junction","Enstaberga","58.751","16.8491"
"SEEby","Junction","Ekeby","59.7769","17.7553"
"SEEd","SmallStation","Ed","58.9135","11.9329"
"SEEi","SmallStation","Erikslund","62.5274","15.9126"
"SEEk","SmallStation","Eksjö","57.6638","14.9754"
"SEEko","Junction","Ekolsund","59.6141","17.3702"
"SEEl","Junction","Edsvalla","59.4358","13.2126"
"SEEm","SmallStation","Emmaboda","56.6298","15.5349"
"SEEn","SmallStation","Edane","59.6268","12.8293"
"SEEns","SmallStation","Enafors","63.2898","12.3373"
"SEEp","SmallStation","Enköping","59.6446","17.0887"
"SEEr","Junction","Ervalla","59.417","15.2476"
"SEEra","Junction","Eneryda","56.7079","14.3397"
"SEErk","Junction","Erikstad","58.6314","12.4106"
"SEEsn","SmallStation","Ekenässjön","57.4905","15.0189"
"SEEt","SmallStation","Eskilstuna central","59.3694","16.5055"
"SEEtk","Junction","Ekträsk","64.4962","19.8096"
"SEF","SmallStation","Falköpings central","58.1757","13.552"
"SEFa","Junction","Finnerödja","58.9262","14.4429"
"SEFabg","Junction","Falkenbergs godsstation","56.9016","12.4875"
"SEFabp","SmallStation","Falkenberg personstation","56.9195","12.5087"
"SEFal","SmallStation","Falerum","58.1436","16.2072"
"SEFas","SmallStation","Farsta strand","59.2367","18.1041"
"SEFax","Junction","Faxån","63.3508","14.2638"
"SEFb","Junction","Forsbacka","60.6397","16.8885"
"SEFby","SmallStation","Floby","58.1387","13.3322"
"SEFd","SmallStation","Floda","57.81","12.3615"
"SEFdf","Junction","Frändefors","58.4943","12.2797"
"SEFeb","SmallStation","Fellingsbro","59.4328","15.595"
"SEFeö","SmallStation","Fågelsjö","61.8016","14.6821"
"SEFfs","Junction","Finnforsfallet","64.7774","20.3331"
"SEFg","Junction","Finspång","58.7072","15.7755"
"SEFgc","SmallStation","Fagersta central","59.9905","15.8155"
"SEFgl","Junction","Fågelsta","58.4586","15.0394"
"SEFgå","SmallStation","Fagerås","59.5198","13.2182"
"SEFgö","Junction","Fångsjöbacken","63.054","16.781"
"SEFhm","SmallStation","Forshem","58.6181","13.4918"
"SEFi","Junction","Fiskeby","58.6051","16.1239"
"SEFil","Junction","Fillan","62.4262","17.382"
"SEFin","Junction","Finja","56.1697","13.6955"
"SEFjå","SmallStation","Fjällåsen","67.5194","20.0937"
"SEFki","SmallStation","Fjälkinge","56.0414","14.2981"
"SEFkr","SmallStation","Fåker","62.9932","14.5744"
"SEFl","Junction","Flädie","55.7237","13.074"
"SEFlb","SmallStation","Flemingsberg","59.2193","17.9478"
"SEFle","SmallStation","Flen","59.0569","16.5853"
"SEFln","SmallStation","Falun central","60.6032","15.6417"
"SEFlp","Junction","Flackarp","55.6867","13.1581"
"SEFls","Junction","Flisby","57.7877","14.8007"
"SEFm","SmallStation","Forserum","57.6979","14.4741"
"SEFn","Junction","Falköpings norra","58.1951","13.5775"
"SEFnö","Junction","Frånö","62.9062","17.8277"
"SEFod","SmallStation","Forsheda","57.1633","13.8329"
"SEFok","Junction","Folkesta","59.4027","16.4143"
"SEFra","SmallStation","Fristad","57.8274","13.0086"
"SEFrd","Junction","Frinnaryd","57.9374","14.8219"
"SEFre","Junction","Fredrikslund","56.7375","15.9506"
"SEFs","SmallStation","Fors","60.2065","16.3115"
"SEFsb","SmallStation","Fosieby","55.5623","13.0315"
"SEFsm","Junction","Forsmo","63.2639","17.1795"
"SEFsö","Junction","Flens övre","59.0616","16.5949"
"SEFt","SmallStation","Fränsta","62.496","16.1674"
"SEFur","SmallStation","Furet","56.6847","12.8885"
"SEFv","SmallStation","Frövi","59.4676","15.3637"
"SEFå","Junction","Frillesås","57.3186","12.1696"
"SEFär","Junction","Fliskär","60.6865","17.2461"
"SEFör","SmallStation","Förslöv","56.3554","12.8014"
"SEGa","Junction","Graninge","63.09","16.861"
"SEGad","Junction","Granstanda","60.5848","16.3661"
"SEGal","SmallStation","Gamleby","57.897","16.4096"
"SEGan","SmallStation","Gantofta","55.989","12.809"
"SEGau","SmallStation","Garnudden","59.1934","17.7708"
"SEGbm","SmallStation","Göteborg Marieholm","57.7354","12.005"
"SEGdl","Junction","Geijersdal","59.5984","13.9669"
"SEGdö","SmallStation","Gårdsjö","58.8721","14.3338"
"SEGe","Junction","Gottne","63.4357","18.3907"
"SEGen","Junction","Gåsträsken","66.0471","22.3477"
"SEGg","SmallStation","Grängesberg","60.075","15.0034"
"SEGgm","Junction","Grängesbergs malmbangård","60.0636","14.9817"
"SEGhd","Junction","Grohed","58.2997","11.899"
"SEGhyn","Junction","Grythyttans norra","59.7389","14.515"
"SEGi","Junction","Gistad","58.4785","15.9144"
"SEGia","Junction","Gideåbacka","63.3377","19.0839"
"SEGib","Junction","Grillby","59.629","17.234"
"SEGim","Junction","Gimonäs","63.7873","20.3159"
"SEGk","Junction","Göteborg Kville","57.7273","11.9826"
"SEGlt","Junction","Gullträsk","66.1956","21.191"
"SEGm","SmallStation","Gemla","56.8708","14.6462"
"SEGmo","Junction","Gimo","60.1759","18.1842"
"SEGmp","Junction","Gamlarp","57.6808","14.6868"
"SEGms","SmallStation","Grums","59.353","13.1138"
"SEGn","SmallStation","Gnesta","59.0485","17.3128"
"SEGnd","Junction","Genevad","56.571","13.0318"
"SEGnf","SmallStation","Gagnef","60.5988","15.081"
"SEGng","Junction","Gullringen","57.805","15.7013"
"SEGnp","SmallStation","Gnarp","62.0554","17.2429"
"SEGnå","Junction","Grönåsen","63.3356","17.3895"
"SEGnö","SmallStation","Gnosjö","57.3585","13.735"
"SEGo","Junction","Godegård","58.7453","15.1652"
"SEGop","SmallStation","Grästorp","58.3346","12.6858"
"SEGp","Junction","Gripenberg","57.9986","14.865"
"SEGrd","Junction","Grevaryd","57.1499","14.5889"
"SEGrm","Junction","Grimsås","57.4824","13.5436"
"SEGro","SmallStation","Gubbero","57.7092","11.9982"
"SEGrs","Junction","Gransjö","66.0639","21.408"
"SEGru","Junction","Grundbro","59.2904","17.1022"
"SEGry","Junction","Gryttje","62.0717","17.2807"
"SEGrö","Junction","Grötingen","62.854","15.4847"
"SEGse","Junction","Gunsen","64.7179","21.0979"
"SEGsh","Junction","Göteborg Skandiahamnen","57.6993","11.8592"
"SEGsn","Junction","Gastsjön","62.9583","15.8565"
"SEGss","SmallStation","Gärsnäs","55.5465","14.1816"
"SEGst","SmallStation","Gammelstad","65.641","22.0261"
"SEGsv","SmallStation","Göteborg Sävenäs","57.7247","12.0186"
"SEGså","Junction","Garsås","60.9133","14.8193"
"SEGt","Junction","Grimstorp","57.5568","14.6972"
"SEGtf","Junction","Gustafs","60.4014","15.5947"
"SEGtå","Junction","Getå","58.6666","16.2634"
"SEGua","Junction","Gullberna","56.1876","15.6143"
"SEGui","Junction","Gussi","61.2345","17.0964"
"SEGun","Junction","Gunnarn","65.0023","17.6749"
"SEGv","SmallStation","Gällivare","67.1333","20.6511"
"SEGy","Junction","Gäddmyr","67.6795","20.193"
"SEGån","Junction","Gålnäs","63.2819","18.6082"
"SEGåp","Junction","Gåvetorp","56.9425","14.5794"
"SEGä","SmallStation","Gävle central","60.6761","17.1518"
"SEGäb","Junction","Gävle godsbangård","60.6812","17.1556"
"SEGäg","Junction","Gräsberg","60.2243","15.2233"
"SEGö","SmallStation","Gällö","62.9112","15.2295"
"SEGön","Junction","Gårdsjön","62.1984","17.3789"
"SEHaa","Junction","Hamra","57.0791","12.3105"
"SEHak","Junction","Hallstavik","60.0508","18.5958"
"SEHan","Junction","Harasjön","63.1734","17.8409"
"SEHar","Junction","Harrå","67.4062","20.1027"
"SEHb","SmallStation","Helsingborgs central","56.0435","12.6952"
"SEHbd","SmallStation","Högboda","59.5575","13.0512"
"SEHbr","Junction","Holsbybrunn","57.4278","15.1953"
"SEHbä","Junction","Högbränna","63.7687","19.4284"
"SEHd","SmallStation","Halmstads central","56.6696","12.8648"
"SEHdm","SmallStation","Hedemora","60.2741","15.9802"
"SEHdn","SmallStation","Holmsveden","61.1197","16.7191"
"SEHdr","Junction","Halmstads rangerbangård","56.6535","12.8863"
"SEHe","Junction","Heberg","56.8734","12.6445"
"SEHel","SmallStation","Helenelund","59.4176","17.9568"
"SEHet","SmallStation","Hestra","57.4431","13.5958"
"SEHf","SmallStation","Hultsfred","57.4859","15.8471"
"SEHfa","SmallStation","Hemfosa","59.0688","17.9766"
"SEHfj","Junction","Hamrångefjärden","60.9011","17.0625"
"SEHfr","SmallStation","Hofors","60.5696","16.2662"
"SEHfs","Junction","Holmfors","65.9032","21.6876"
"SEHg","Junction","Hagaström","60.6704","17.0681"
"SEHge","Junction","Hagge","60.1314","15.31"
"SEHgl","Junction","Hagalund","59.3721","18.0056"
"SEHgv","SmallStation","Häggvik","59.4432","17.9337"
"SEHgö","Junction","Högsjö","59.0501","15.7229"
"SEHh","SmallStation","Hallstahammar","59.6147","16.2202"
"SEHie","SmallStation","Hyllie","55.5631","12.9763"
"SEHil","Junction","Hillared","57.6299","13.158"
"SEHj","Junction","Hjulsbro","58.3794","15.7165"
"SEHjp","SmallStation","Hjärup","55.6738","13.1362"
"SEHka","SmallStation","Huskvarna","57.7824","14.2648"
"SEHkl","SmallStation","Hudiksvall","61.7247","17.1092"
"SEHkö","Junction","Hökön","56.474","14.224"
"SEHl","Junction","Horndal","60.3048","16.4137"
"SEHlf","SmallStation","Hällefors","59.7777","14.5181"
"SEHlm","Junction","Helgum","63.151","16.9499"
"SEHlp","Junction","Hasslarp","56.1357","12.8162"
"SEHls","SmallStation","Hällnäs","64.3055","19.6259"
"SEHlt","Junction","Herrhult","59.6499","14.3107"
"SEHly","Junction","Hilleby","60.7304","17.1715"
"SEHlö","Junction","Hölö","59.0259","17.5348"
"SEHm","SmallStation","Hässleholm","56.1579","13.7632"
"SEHma","Junction","Hökmora","60.0621","16.1573"
"SEHmfs","Junction","Hissmofors","63.3198","14.4578"
"SEHmö","SmallStation","Holmsjö","56.4222","15.5422"
"SEHnb","Junction","Hälsingenybo","62.0707","15.8329"
"SEHnd","SmallStation","Handen","59.1663","18.1341"
"SEHnl","Junction","Hällenyland","62.603","17.7882"
"SEHnn","Junction","Hennan","62.0219","15.9024"
"SEHno","Junction","Hinsnoret","60.5425","15.6283"
"SEHnä","SmallStation","Hälleforsnäs","59.162","16.5026"
"SEHo","SmallStation","Habo","57.9064","14.077"
"SEHod","Junction","Holmsund","63.7085","20.369"
"SEHova","SmallStation","Hova","58.8548","14.2152"
"SEHoå","Junction","Holmån","63.3913","17.6483"
"SEHp","SmallStation","Haparanda","65.8281","24.1311"
"SEHpbg","SmallStation","Hallsbergs personbangård","59.0671","15.1112"
"SEHr","SmallStation","Herrljunga","58.0791","13.0209"
"SEHre","SmallStation","Horred","57.3537","12.4777"
"SEHrl","Junction","Hörle","57.2591","14.0538"
"SEHrm","Junction","Hargshamn","60.1692","18.4728"
"SEHrt","Junction","Harrträsk","67.0335","20.7143"
"SEHs","Junction","Hasselfors","59.0856","14.6463"
"SEHsa","Junction","Hovsta","59.3491","15.2187"
"SEHsb","Junction","Hedensbyn","64.7448","21.0107"
"SEHsd","SmallStation","Härnösands central","62.6353","17.9284"
"SEHsr","SmallStation","Hasslerör","58.7502","13.9395"
"SEHsy","Junction","Hussjöby","62.5475","17.6057"
"SEHsö","Junction","Hörnsjö","63.7953","19.5074"
"SEHt","Junction","Hednoret","65.8234","21.5319"
"SEHtg","SmallStation","Hoting","64.1156","16.1991"
"SEHto","SmallStation","Hillerstorp","57.3136","13.8836"
"SEHu","SmallStation","Huddinge","59.2357","17.978"
"SEHud","Junction","Hulingsryd","57.501","15.8352"
"SEHul","SmallStation","Hult","57.6445","15.1288"
"SEHumn","Junction","Husums norra","63.3483","19.1676"
"SEHuv","Junction","Huvudsta","59.3548","18.0006"
"SEHuö","Junction","Hundsjön","65.9652","21.8027"
"SEHv","SmallStation","Hästveda","56.2886","13.9348"
"SEHvd","SmallStation","Hjältevad","57.6289","15.344"
"SEHvp","SmallStation","Hovmantorp","56.7862","15.1396"
"SEHvr","SmallStation","Håverud","58.8246","12.4129"
"SEHy","SmallStation","Heby","59.9404","16.8532"
"SEHyl","Junction","Hyllstofta","56.1325","13.2859"
"SEHå","Junction","Håsjö","63.0234","16.273"
"SEHåg","Junction","Harmånger","61.9035","17.2689"
"SEHåk","Junction","Håmojåkk","67.3241","20.1679"
"SEHål","Junction","Hållsta","59.2952","16.4586"
"SEHåp","SmallStation","Håkantorp","58.3067","12.9076"
"SEHås","SmallStation","Hindås","57.7044","12.451"
"SEHä","Junction","Hästbo","60.449","16.4553"
"SEHäb","Junction","Hämrasviken","63.2241","18.0409"
"SEHäd","Junction","Härad","59.3571","16.9132"
"SEHän","Junction","Häggsjön","62.5745","17.7314"
"SEHäy","Junction","Härryda","57.6897","12.3036"
"SEHö","SmallStation","Höör","55.9375","13.5431"
"SEHög","Junction","Högbysjön","63.3127","18.8902"
"SEHöja","Junction","Höja","59.2998","14.1345"
"SEHön","Junction","Högdalen","59.2574","18.042"
"SEHös","Junction","Hössjön","63.6553","19.9723"
"SEId","SmallStation","Iggesund","61.6448","17.0814"
"SEIn","SmallStation","Insjön","60.6755","15.0944"
"SEIst","Junction","Isätra","59.9377","16.7441"
"SEJ","Junction","Jonsered östra","57.7512","12.1922"
"SEJb","Junction","Järbo","60.715","16.6031"
"SEJbg","Junction","Johannisberg","62.504","16.0289"
"SEJbk","Junction","Jädersbruk","59.4072","15.7984"
"SEJbo","SmallStation","Jordbro","59.1423","18.1266"
"SEJho","Junction","Jakobshyttan","58.808","15.1594"
"SEJk","SmallStation","Jokkmokk","66.6071","19.8401"
"SEJkb","SmallStation","Jakobsberg","59.4238","17.8331"
"SEJla","Junction","Järlåsa","59.885","17.2031"
"SEJlo","Junction","Järlebo","60.1344","17.7419"
"SEJn","SmallStation","Järna","59.0938","17.5684"
"SEJnt","Junction","Järneträsk","65.639","20.7401"
"SEJpn","SmallStation","Järpen","63.3424","13.4722"
"SEJps","SmallStation","Järpås","58.379","12.97"
"SEJr","SmallStation","Järvsö","61.7157","16.1721"
"SEJrn","SmallStation","Jörn","65.0533","20.0294"
"SEJs","SmallStation","Jämtlands Sikås","63.6262","15.2065"
"SEJu","Junction","Jularbo","60.1583","16.2577"
"SEJå","Junction","Juån","62.3692","15.5623"
"SEJår","Junction","Jönåker","58.7433","16.7247"
"SEJäy","Junction","Järlövsby","57.2785","12.3613"
"SEJö","SmallStation","Jönköpings central","57.7845","14.1646"
"SEK","SmallStation","Katrineholms central","58.9965","16.2092"
"SEKa","SmallStation","Kattarp","56.1449","12.7783"
"SEKaa","Junction","Koijuvaara","67.0578","20.7311"
"SEKac","SmallStation","Kalmar central","56.6613","16.3603"
"SEKap","Junction","Karpalund","56.0407","14.0947"
"SEKas","Junction","Kalmar södra","56.6667","16.3311"
"SEKat","Junction","Kattisavan","64.7534","18.16"
"SEKaä","Junction","Kattisträsk","64.6893","20.0328"
"SEKb","SmallStation","Kungsbacka","57.4895","12.0799"
"SEKbn","SmallStation","Karbenning","60.0368","16.0732"
"SEKbä","SmallStation","Kolbäck","59.5643","16.2334"
"SEKd","SmallStation","Kågeröd","56.0015","13.0828"
"SEKde","SmallStation","Kode","57.9445","11.8509"
"SEKe","SmallStation","Karlberg","59.3403","18.0284"
"SEKeb","Junction","Kejsarbäcken","59.8334","14.7125"
"SEKei","Junction","Keräsjoki","65.8466","23.924"
"SEKfn","SmallStation","Kolforsen","60.8431","16.8512"
"SEKg","SmallStation","Kävlinge","55.7945","13.1114"
"SEKgd","Junction","Kungsgården","60.6024","16.6211"
"SEKgs","Junction","Kragenäs","58.7987","11.2531"
"SEKgå","Junction","Klostergården","55.6944","13.1712"
"SEKh","SmallStation","Karlshamn","56.1771","14.8664"
"SEKhn","SmallStation","Kristinehamn","59.3174","14.1071"
"SEKhy","Junction","Klenshyttan","60.1079","15.1043"
"SEKhä","SmallStation","Kallhäll","59.4523","17.8073"
"SEKia","Junction","Kirunavaara","67.802","20.1989"
"SEKil","SmallStation","Kil","59.5047","13.3159"
"SEKisa","SmallStation","Kisa","57.9846","15.6341"
"SEKju","Junction","Kjula","59.3373","16.6614"
"SEKl","SmallStation","Klippan","56.1307","13.13"
"SEKla","SmallStation","Kumla","59.1275","15.141"
"SEKlbn","Junction","Klockarbäcken","63.8562","20.1421"
"SEKlh","Junction","Kallholsfors","61.1674","14.7042"
"SEKln","Junction","Kälarne","62.9806","16.0832"
"SEKlr","Junction","Koler","65.4958","20.4932"
"SEKls","SmallStation","Kilafors","61.2307","16.5704"
"SEKlv","Junction","Kilvo","66.8309","20.8947"
"SEKlx","Junction","Kalix Östra","65.8566","23.1803"
"SEKm","Junction","Kilsmo","59.0657","15.5357"
"SEKmb","SmallStation","Kiruna malmbangård","67.8683","20.1992"
"SEKms","SmallStation","Kimstad","58.5363","15.9688"
"SEKn","SmallStation","Knivsta","59.7254","17.7871"
"SEKng","Junction","Kvarnängen","58.9293","17.9275"
"SEKnl","SmallStation","Knalleland","57.7341","12.9426"
"SEKnä","Junction","Knäred","56.5155","13.3115"
"SEKoe","Junction","Kolke","59.0584","17.2148"
"SEKoj","Junction","Kosjärv","65.9313","22.8414"
"SEKon","SmallStation","Kolmården","58.6747","16.3625"
"SEKos","Junction","Koskullskulle","67.187","20.7327"
"SEKoä","Junction","Korsnäs","60.5861","15.7127"
"SEKp","SmallStation","Köping","59.5062","16.0066"
"SEKpe","Junction","Kaisepakte","68.2857","19.3033"
"SEKpg","SmallStation","Kopparberg","59.8726","14.9869"
"SEKpm","Junction","Köpmannebro","58.7685","12.5071"
"SEKrb","Junction","Karsbäcken","64.9029","19.996"
"SEKrd","SmallStation","Kållered","57.6155","12.0462"
"SEKrf","SmallStation","Kramfors","62.929","17.7782"
"SEKrl","Junction","Kringlan","60.9659","17.0549"
"SEKrn","Junction","Krampen","59.7425","15.5797"
"SEKroj","Junction","Krokom OJ","63.3385","14.4127"
"SEKröb","Junction","Krökesbo","57.7071","14.5032"
"SEKs","SmallStation","Karlstads central","59.3779","13.499"
"SEKsg","Junction","Karlsberg","62.9413","15.6407"
"SEKst","Junction","Kistinge","56.6385","12.914"
"SEKsu","SmallStation","Kvicksund","59.4581","16.3095"
"SEKsö","Junction","Karsjö","61.6402","16.2615"
"SEKtä","Junction","Korsträsk","65.6647","20.8646"
"SEKud","Junction","Klingerud","59.4833","13.3608"
"SEKv","SmallStation","Krokvik","67.9312","20.0667"
"SEKva","Junction","Koskivaara","66.6494","20.9845"
"SEKvf","Junction","Kvillsfors","57.4033","15.4957"
"SEKvh","SmallStation","Klevshult","57.3516","14.0973"
"SEKvi","SmallStation","Kvidinge","56.1372","13.0461"
"SEKvä","SmallStation","Karlstad Välsviken","59.3911","13.5821"
"SEKx","Junction","Kalixfors","67.7415","20.2086"
"SEKå","Junction","Kopparåsen","68.4263","18.5036"
"SEKåb","SmallStation","Kåbdalis","66.1528","19.9887"
"SEKä","Junction","Källeryd","58.1146","13.1936"
"SEKäb","Junction","Kärreberga","56.1384","12.9835"
"SEKäe","Junction","Källene","61.3335","17.0167"
"SEKän","SmallStation","Kungsängen","59.4781","17.7528"
"SEKäv","Junction","Kälvattnet","63.4215","17.9778"
"SEKöa","Junction","Könsa","63.3911","19.1899"
"SEKör","SmallStation","Kungsör","59.4278","16.1031"
"SELa","SmallStation","Ludvika","60.1499","15.1825"
"SELab","Junction","Lappberg","67.593","20.1961"
"SELaov","SmallStation","Laholm västra","56.5027","12.9994"
"SELd","SmallStation","Lindesberg","59.5945","15.2286"
"SELdl","Junction","Lidlund","64.9822","20.0254"
"SELdo","SmallStation","Lindome","57.576","12.0787"
"SELe","SmallStation","Luleå","65.5841","22.1656"
"SELea","Junction","Leksboda","60.7766","15.0202"
"SELek","Junction","Lekarekulle","57.4044","12.1518"
"SELet","Junction","Lilla Edet","58.1318","12.1258"
"SELg","SmallStation","Läggesta","59.2475","17.1691"
"SELgb","SmallStation","Långbron","58.9365","12.2799"
"SELgd","Junction","Ledsgård","57.5286","12.096"
"SELgm","SmallStation","Linghem","58.4363","15.7851"
"SELin","Junction","Linaälv","67.2568","20.2393"
"SELit","SmallStation","Lit","63.3184","14.8567"
"SELj","SmallStation","Ljungskile","58.2248","11.921"
"SELju","SmallStation","Ljung","57.9865","13.0533"
"SELjun","Junction","Ljungaverks lastplats","62.4961","16.0783"
"SELkm","Junction","Lökom","63.1652","17.6017"
"SELkn","Junction","Lindekullen","58.2553","15.0959"
"SELkp","SmallStation","Lidköping","58.5044","13.1651"
"SELkä","Junction","Lakaträsk","66.2753","21.1253"
"SELkö","SmallStation","Landskrona Östra","55.8791","12.8574"
"SELln","Junction","Linddalen","59.0114","14.7691"
"SELma","SmallStation","Lomma","55.671","13.0744"
"SELme","SmallStation","Limmared","57.534","13.3535"
"SELmm","Junction","Lemmeströ","55.4916","13.3637"
"SELmn","Junction","Långviksmon","63.6335","18.6926"
"SELmo","Junction","Löcknamon","58.9134","15.0712"
"SELms","Junction","Lomselenäs","65.2156","17.6464"
"SELns","Junction","Lidnäs","57.0701","14.6003"
"SELnv","Junction","Långvattnet","63.6529","18.7313"
"SELnå","SmallStation","Lugnås","58.6443","13.7019"
"SELo","SmallStation","Lessebo","56.7506","15.2585"
"SELot","Junction","Lottefors","61.4202","16.4115"
"SELp","SmallStation","Linköpings central","58.417","15.6243"
"SELr","SmallStation","Lerum","57.7694","12.2728"
"SELrd","SmallStation","Landeryd","57.0767","13.2656"
"SELre","Junction","Lästringe","58.8751","17.3272"
"SELrg","Junction","Laduberg","65.7218","21.11"
"SELrp","Junction","Lockarp","55.5472","13.0408"
"SELs","SmallStation","Ljusdal","61.8268","16.0965"
"SELsb","Junction","Ljusne bruk","61.2171","17.1166"
"SELsd","SmallStation","Leksand","60.734","15.003"
"SELsj","Junction","Långsjön","60.5873","16.0915"
"SELsl","SmallStation","Långsele","63.1764","17.0672"
"SELsn","Junction","Losesjön","61.4105","16.9945"
"SELsp","Junction","Lycksele industrispår","64.5895","18.6995"
"SELså","Junction","Ljuså","65.9779","21.6004"
"SELtk","Junction","Långträsk","65.3774","20.3363"
"SELtr","Junction","Loster","61.9395","15.9491"
"SELu","SmallStation","Lund c","55.7072","13.1866"
"SELub","Junction","Lundby","59.6546","16.9278"
"SELuå","Junction","Lustån","60.2361","16.0088"
"SELuä","Junction","Lubboträsk","64.5591","19.9294"
"SELvd","Junction","Lövliden","64.6545","16.6124"
"SELve","SmallStation","Lovene","58.4402","13.0466"
"SELy","SmallStation","Lycksele","64.5943","18.6688"
"SELyd","SmallStation","Lyrestad","58.8049","14.0566"
"SELyg","Junction","Lyckselesågen","64.5927","18.7285"
"SELyt","Junction","Lycksele timmer","64.5903","18.7575"
"SELyv","SmallStation","Lysvik","60.016","13.1378"
"SELå","SmallStation","Laxå","58.9889","14.6146"
"SELö","Junction","Lörstrand","61.6588","16.1655"
"SELöb","SmallStation","Lövberga","63.9613","15.8524"
"SELöö","Junction","Lödöse","58.0275","12.1512"
"SEM","SmallStation","Malmö central","55.6097","13.0002"
"SEMa","Junction","Mattmar","63.3033","13.8302"
"SEMaj","Junction","Maj","62.2331","17.4014"
"SEMb","Junction","Mobodarne","61.2809","16.7148"
"SEMby","Junction","Malmby","59.3439","17.0535"
"SEMbä","SmallStation","Malmbäck","57.578","14.4604"
"SEMdl","Junction","Moradal","62.5638","15.5477"
"SEMdm","Junction","Mariedamm","58.8529","15.162"
"SEMdn","SmallStation","Mölndals nedre","57.6634","12.0167"
"SEMdö","Junction","Mölndals övre","57.6585","12.031"
"SEMe","Junction","Marmaverken","61.2705","16.8634"
"SEMfj","SmallStation","Mockfjärd","60.4958","14.9584"
"SEMfn","SmallStation","Munkflohögen","63.5601","14.949"
"SEMh","Junction","Moholm","58.6071","14.0402"
"SEMhn","Junction","Myrheden","65.2995","20.2159"
"SEMi","SmallStation","Mörsil","63.3085","13.6577"
"SEMia","SmallStation","Maria","56.0756","12.7106"
"SEMjv","Junction","Morjärv","66.0697","22.6952"
"SEMk","SmallStation","Murjek","66.4841","20.8807"
"SEMkl","SmallStation","Munkedal","58.4669","11.675"
"SEMl","SmallStation","Mellerud","58.7018","12.4648"
"SEMlb","Junction","Mellby","56.0749","13.7373"
"SEMlf","SmallStation","Meselefors","64.443","16.8167"
"SEMlg","SmallStation","Malung","60.6836","13.7104"
"SEMlö","Junction","Mellösa","59.1008","16.5596"
"SEMnd","SmallStation","Mariannelund","57.616","15.5853"
"SEMo","SmallStation","Moheda","57.0031","14.5766"
"SEMog","Junction","Mo grindar","60.9421","16.7117"
"SEMon","Junction","Mon","58.909","11.7658"
"SEMorp","Junction","Munktorp","59.5332","16.1341"
"SEMos","SmallStation","Moskosel","65.8824","19.4266"
"SEMot","SmallStation","Motala central","58.5375","15.0482"
"SEMr","SmallStation","Märsta","59.6277","17.8616"
"SEMras","SmallStation","Morastrand","61.0049","14.5426"
"SEMrc","SmallStation","Mora central","61.0087","14.5591"
"SEMrd","SmallStation","Markaryd","56.4596","13.5939"
"SEMrm","Junction","Marma","60.4801","17.421"
"SEMrs","Junction","Morshyttan","60.2619","16.3754"
"SEMru","SmallStation","Mörrum","56.1869","14.743"
"SEMs","Junction","Mosås","59.1978","15.1626"
"SEMsj","Junction","Malmsjö","59.1541","17.7626"
"SEMsl","SmallStation","Mellansel","63.4282","18.3067"
"SEMsn","Junction","Medskogsheden","60.7912","16.6992"
"SEMss","Junction","Mönsterås","57.0401","16.4469"
"SEMst","SmallStation","Mariestad","58.7113","13.8257"
"SEMsö","Junction","Mellansjö","62.3078","15.6822"
"SEMt","SmallStation","Mantorp","58.348","15.2882"
"SEMtm","Junction","Maitum","66.3902","19.7025"
"SEMtn","Junction","Mertainen","67.6778","20.8438"
"SEMu","SmallStation","Mullsjö","57.915","13.8814"
"SEMud","SmallStation","Mosselund","56.2158","13.8504"
"SEMy","SmallStation","Mjölby","58.3227","15.1321"
"SEMyk","SmallStation","Mölnlycke","57.657","12.1187"
"SEMyn","Junction","Myrbacken","59.694","17.8077"
"SEMyra","Junction","Myra","61.5065","16.9873"
"SEMå","SmallStation","Morgongåva","59.9329","16.9614"
"SEMåp","SmallStation","Månsarp","57.654","14.0711"
"SEMö","SmallStation","Mölnbo","59.0474","17.4183"
"SEMöa","SmallStation","Mörlunda","57.3223","15.8756"
"SEMöl","Junction","Mörtsal","62.7825","17.926"
"SEMör","SmallStation","Mörarp","56.0554","12.8736"
"SEN","SmallStation","Nässjö central","57.6514","14.6947"
"SENb","Junction","Näsberg","66.3648","21.0094"
"SENdv","Junction","Norsesund västra","57.8588","12.4338"
"SENg","Junction","Norrhög","62.2392","15.6582"
"SENh","Junction","Norsholm","58.5069","15.972"
"SENjb","SmallStation","Njurundabommen","62.2675","17.3774"
"SENk","SmallStation","Nyköpings central","58.7566","16.9971"
"SENka","SmallStation","Nykroppa","59.6225","14.3084"
"SENkr","Junction","Norra Kikkejaur","65.638","19.136"
"SENks","Junction","Nyköping södra","58.7476","17.0008"
"SENkt","Junction","Näverkärret","59.6653","15.5272"
"SENkv","SmallStation","Nykvarn","59.1787","17.4321"
"SENl","SmallStation","Nelhammar","58.0898","16.325"
"SENly","Junction","Nolby","62.2884","17.3761"
"SENml","Junction","Niemisel","66.0281","22.0015"
"SENoe","Junction","Norrmjöle","63.702","20.0878"
"SENog","SmallStation","Nordmaling","63.5784","19.4823"
"SENon","Junction","Norrsjön","63.5832","19.6"
"SENosk","Junction","Nordskogen","57.7503","12.9501"
"SENr","SmallStation","Norrköpings central","58.5963","16.1817"
"SENrs","Junction","Norrfors","63.7689","18.9986"
"SENrt","Junction","Nuortikon","66.8835","20.8207"
"SENsj","Junction","Nyckelsjön","59.0878","16.8668"
"SENst","Junction","Stockholms norra","59.3475","18.0335"
"SENsö","Junction","Nedansjö","62.3747","16.8525"
"SENta","Junction","Nacksta","62.3986","17.2472"
"SENtv","SmallStation","Nattavaara","66.7543","20.9501"
"SENvl","Junction","Norra Valbo","60.6615","17.0135"
"SENvn","SmallStation","Notviken","65.6107","22.1187"
"SENy","Junction","Nyhem","62.8919","15.6133"
"SENyb","SmallStation","Nybro","56.7424","15.909"
"SENyc","SmallStation","Nynäshamns centrum","58.9002","17.9497"
"SENyf","Junction","Nyfors","65.6718","20.9644"
"SENyå","Junction","Nyåker","63.7701","19.313"
"SENä","SmallStation","Nälden","63.3506","14.2631"
"SENät","Junction","Nättraby","56.211","15.5271"
"SEO","SmallStation","Osby","56.3812","13.9957"
"SEOb","SmallStation","Ockelbo","60.8912","16.7209"
"SEOf","SmallStation","Olofström","56.2791","14.5197"
"SEOh","SmallStation","Oskarshamn","57.2629","16.4576"
"SEOm","SmallStation","Oskarström","56.8065","12.972"
"SEOmb","Junction","Ombenning","59.9809","15.9265"
"SEOpe","Junction","Ope","63.1339","14.7462"
"SEOr","Junction","Olskroken","57.7184","11.9988"
"SEOrn","Junction","Ornäs","60.5072","15.5349"
"SEOrs","SmallStation","Orsa","61.1191","14.6211"
"SEOry","SmallStation","Ormaryd","57.6656","14.8314"
"SEOs","Junction","Orrskog","60.4045","17.4005"
"SEOsl","SmallStation","Oslättfors","60.773","16.9788"
"SEOsö","Junction","Ovansjö","62.5172","15.5938"
"SEOt","SmallStation","Ottebol","59.698","12.4616"
"SEOxd","Junction","Oxelösund","58.6705","17.0999"
"SEOxm","Junction","Oxmyran","63.7734","19.2369"
"SEP","SmallStation","Partille","57.7407","12.1026"
"SEPc","Junction","Polcirkeln","66.5673","21.0212"
"SEPea","Junction","Peuravaara","67.8729","20.1574"
"SEPii","Junction","Pitkäjärvi","67.6642","20.9399"
"SEPj","SmallStation","Porjus","66.9661","19.8297"
"SEPl","SmallStation","Pilgrimstad","62.955","15.0404"
"SEPt","SmallStation","Perstorp","56.1364","13.3986"
"SEPtå","Junction","Piteå","65.3179","21.4681"
"SEPå","Junction","Pålsboda","59.0639","15.3401"
"SEPåa","SmallStation","Påarp","56.0293","12.8172"
"SEPö","Junction","Pålsjö","56.0684","12.6983"
"SEPöb","Junction","Pölsebo","57.6995","11.8991"
"SER","SmallStation","Rotebro","59.4755","17.9153"
"SERan","Junction","Rian","65.8913","23.0088"
"SERas","Junction","Ralingsås","57.877","14.8037"
"SERb","SmallStation","Ronneby","56.2064","15.2836"
"SERbh","SmallStation","Rabbalshede","58.6101","11.4707"
"SERbo","Junction","Röstbo","61.1751","16.6732"
"SERby","Junction","Rockneby","56.8073","16.3411"
"SERbä","Junction","Repbäcken","60.5142","15.3434"
"SERd","SmallStation","Rävlanda","57.6544","12.5003"
"SERdg","SmallStation","Rydsgård","55.4742","13.5885"
"SERf","SmallStation","Rimforsa","58.1353","15.6817"
"SERft","SmallStation","Reftele","57.1759","13.5935"
"SERjn","SmallStation","Röjan","62.4792","14.3592"
"SERk","Junction","Rörvik","57.2302","14.5829"
"SERke","Junction","Rekarne","59.4276","16.3408"
"SERlå","Junction","Rällså","59.797","15.0975"
"SERmh","Junction","Rämshyttan","60.2983","15.2224"
"SERmtp","Junction","Regumatorp","58.317","13.7903"
"SERob","Junction","Roback","63.0204","16.1617"
"SERos","Junction","Rossön","63.9212","16.3488"
"SERps","Junction","Ripats","66.9719","20.7316"
"SERs","SmallStation","Rosersberg","59.5844","17.8798"
"SERsi","Junction","Råtsi","67.791","20.2405"
"SERsn","SmallStation","Rensjön","68.0707","19.8269"
"SERsö","Junction","Ramsjö","62.16","15.6763"
"SERt","SmallStation","Ransta","59.8102","16.64"
"SERte","Junction","Röste","61.3802","16.3918"
"SERts","SmallStation","Rottneros","59.795","13.1287"
"SERu","SmallStation","Ragunda","63.0584","16.4123"
"SERud","Junction","Ruda","57.1104","16.1164"
"SERuk","Junction","Rundvik","63.5461","19.4143"
"SERus","Junction","Runsala","58.869","15.1531"
"SERut","SmallStation","Rautas","67.9943","19.8986"
"SERv","SmallStation","Rättvik","60.8847","15.1157"
"SERy","Junction","Rosshyttan","60.0686","16.3541"
"SERyb","Junction","Ryssjöbrink","59.2095","17.3357"
"SERye","Junction","Rynge","55.4689","13.6706"
"SERyg","Junction","Ryggen","60.591","15.9462"
"SERym","SmallStation","Rydaholm","56.9864","14.3115"
"SERyr","Junction","Ryr","58.3318","12.1387"
"SERåg","SmallStation","Rågsveden","60.4795","14.0652"
"SERån","Junction","Råsjön","58.8309","12.4119"
"SERås","Junction","Råskogen","58.6421","12.3808"
"SERäp","Junction","Räppe","56.8837","14.7369"
"SERö","Junction","Rödberg","57.6778","12.6166"
"SES","SmallStation","Sveg","62.0345","14.352"
"SESae","SmallStation","Sandared","57.7095","12.7925"
"SESak","Junction","Sandbäck","56.1635","14.6345"
"SESal","SmallStation","Svalöv","55.9135","13.1105"
"SESam","Junction","Samnan","59.9115","17.6551"
"SESas","Junction","Salsta","60.0466","17.7284"
"SESau","Junction","Stora Tuna","60.4418","15.4969"
"SESaö","Junction","Skabersjö","55.5339","13.1541"
"SESba","Junction","Spannarboda","59.5763","15.5075"
"SESbe","Junction","Saluböle","63.4774","19.2872"
"SESbi","Junction","Storblåliden","65.4468","20.4289"
"SESbk","Junction","Stenbacken","68.2498","19.5024"
"SESbl","Junction","Skärblacka","58.5751","15.9103"
"SESby","Junction","Norra Sunderbyn","65.6978","21.865"
"SESbä","Junction","Sågbäcken","66.0621","22.5955"
"SESci","SmallStation","Stockholm City","59.3324","18.0649"
"SESde","Junction","Sköldinge","59.0302","16.4542"
"SESdm","Junction","Sandmon","59.6028","13.6343"
"SESdr","SmallStation","Smålandsstenar","57.1614","13.415"
"SESea","SmallStation","Svedala","55.5069","13.232"
"SESee","SmallStation","Skene","57.4884","12.6494"
"SESel","Junction","Sävedalen","57.7329","12.0665"
"SESen","Junction","Stavreviken","62.5535","17.4066"
"SESet","Junction","Stensundberget","65.8491","23.3822"
"SESf","SmallStation","Storfors","59.533","14.2717"
"SESfl","SmallStation","Säffle","59.1324","12.9162"
"SESfn","Junction","Storflon","63.3513","14.3865"
"SESg","SmallStation","Stehag","55.9003","13.3934"
"SESgm","Junction","Segmon","59.2747","13.0385"
"SESgs","SmallStation","Strängnäs","59.3703","17.0282"
"SESgä","SmallStation","Slagnäs","65.5859","18.1579"
"SESh","Junction","Stjärnhov","59.0829","17.0053"
"SEShr","SmallStation","Surahammar","59.7066","16.2196"
"SEShv","SmallStation","Söderhamns västra","61.2994","17.0349"
"SESi","SmallStation","Simrishamn","55.5536","14.3511"
"SESid","Junction","Silverdalens bruk","57.5362","15.7592"
"SESie","Junction","Stävie","55.7475","13.0742"
"SESii","Junction","Silinge","59.0123","16.5666"
"SESik","Junction","Svartvik","62.3227","17.3673"
"SESir","Junction","Sorsele industrispår","65.5628","17.5245"
"SESk","SmallStation","Skövde central","58.389","13.8519"
"SESkb","SmallStation","Skinnskatteberg","59.8326","15.6916"
"SESkbl","Junction","Skälebol","58.6071","12.3931"
"SESkby","Junction","Skavstaby","59.5506","17.8959"
"SESke","SmallStation","Skee","58.9234","11.2621"
"SESkg","SmallStation","Skogås","59.2194","18.1536"
"SESkk","Junction","Skönvik","62.4689","17.3281"
"SESkl","Junction","Skellefteå","64.7535","20.9557"
"SESkm","Junction","Stenkumla","58.9614","15.0435"
"SESkms","Junction","Skymossen","59.02","15.0889"
"SESkn","SmallStation","Skänninge","58.3926","15.0925"
"SESkr","Junction","Skåre","59.4294","13.4484"
"SESkrp","Junction","Skogstorp","59.3318","16.4734"
"SESkv","Junction","Skebokvarn","59.0653","16.7178"
"SESkä","Junction","Skästra","61.7491","16.1641"
"SESl","SmallStation","Sala","59.9257","16.6045"
"SESlbk","Junction","Solbacka","62.5046","17.3601"
"SESle","Junction","Slätte","58.7644","14.2009"
"SESlg","Junction","Sällinge","59.5197","15.4804"
"SESlj","Junction","Selsjön","63.307","17.2123"
"SESlm","Junction","Solum","63.1153","17.7828"
"SESlnä","Junction","Sellnäs","60.4134","15.3807"
"SESm","SmallStation","Sandhem","57.9883","13.7727"
"SESmd","SmallStation","Strömstad","58.9365","11.1734"
"SESmj","SmallStation","Smedjebacken","60.1365","15.4056"
"SESmn","Junction","Sommen","58.1458","14.9783"
"SESmo","Junction","Strömsbro","60.6993","17.1547"
"SESmt","Junction","Simonstorp","58.7839","16.157"
"SESmå","Junction","Simeå","61.5719","16.3267"
"SESn","SmallStation","Stenkullen","57.7917","12.3146"
"SESnb","Junction","Snickarbo","60.1911","16.0564"
"SESne","Junction","Sandarne","61.2651","17.1484"
"SESngå","Junction","Singsån","63.0289","16.3769"
"SESnl","Junction","Skanlog","59.4055","16.4453"
"SESnt","Junction","Snyten","59.9916","16.0238"
"SESnu","SmallStation","Stenungsund","58.0727","11.8247"
"SESnv","SmallStation","Sandviken","60.6142","16.7776"
"SESo","SmallStation","Solna","59.3655","18.0103"
"SESoa","Junction","Stordalen","68.3436","19.0705"
"SESod","SmallStation","Stockholm Odenplan","59.3444","18.0451"
"SESoe","Junction","Stolpen","57.5915","14.5528"
"SESol","SmallStation","Sollentuna","59.4294","17.9475"
"SESom","Junction","Stormyran","63.3686","17.4473"
"SESop","Junction","Skorped","63.3854","17.8595"
"SESp","Junction","Sparreholm","59.0758","16.8286"
"SESph","SmallStation","Skeppshult","57.125","13.3569"
"SESpj","Junction","Spjutsbygd","56.3103","15.5943"
"SESpjb","Junction","Spjutbäcken","59.3287","14.1388"
"SESpk","Junction","Sprängsviken","62.8604","17.8707"
"SESpn","Junction","Stolpstugan","59.0121","16.3435"
"SESpå","SmallStation","Spånga","59.3841","17.8973"
"SESr","SmallStation","Storå","59.7189","15.1407"
"SESre","SmallStation","Söderbärke","60.0725","15.5371"
"SESro","SmallStation","Storebro","57.584","15.8522"
"SESrp","SmallStation","Skurup","55.4802","13.4981"
"SESrr","Junction","Skattkärr","59.4086","13.6718"
"SESrs","SmallStation","Sorsele","65.535","17.5428"
"SESrt","Junction","Strömtorp","59.2506","14.4115"
"SESru","Junction","Skruv","56.6778","15.3672"
"SESrv","SmallStation","Storvreta","59.9563","17.7062"
"SESs","SmallStation","Stenstorp","58.2729","13.7127"
"SESsa","Junction","Sjösa","58.7822","17.0964"
"SESsh","Junction","Strömsholm","59.501","16.2677"
"SESst","SmallStation","Stockholms Södra","59.3134","18.0605"
"SESsä","SmallStation","Segersäng","59.0295","17.9271"
"SESt","SmallStation","Säter","60.3466","15.7571"
"SEStd","SmallStation","Stöde","62.4198","16.5991"
"SESten","Junction","Stegsskogen","61.8479","17.2018"
"SESth","SmallStation","Stora Höga","58.0187","11.8358"
"SESti","Junction","Storbergets industrispår","64.2563","16.4512"
"SEStk","Junction","Sikträsk","67.1744","20.4423"
"SEStl","SmallStation","Ställdalen","59.9344","14.9417"
"SESto","Junction","Storträsk","65.154","20.06"
"SESton","Junction","Stockviksverkens nedre","62.3471","17.3608"
"SEStp","SmallStation","Svågertorp","55.5473","12.9933"
"SEStr","SmallStation","Storlien","63.3159","12.1006"
"SESts","Junction","Storsund","65.5784","20.6221"
"SEStv","SmallStation","Stavre","62.8261","15.3118"
"SEStå","SmallStation","Sollefteå","63.167","17.2651"
"SEStä","Junction","Sandträsk","66.1266","21.318"
"SEStö","Junction","Strångsjö","58.9061","16.198"
"SESub","SmallStation","Sundbyberg","59.3608","17.9718"
"SESuc","SmallStation","Sundsvalls central","62.3866","17.3149"
"SESum","SmallStation","Storuman","65.096","17.1099"
"SESun","SmallStation","Sunne","59.8355","13.1492"
"SESur","SmallStation","Skutskär","60.626","17.4046"
"SESus","SmallStation","Sunderbyns sjukhus","65.6733","21.9354"
"SESv","SmallStation","Storvik","60.5819","16.5343"
"SESve","Junction","Säve","57.8042","11.9123"
"SESvg","SmallStation","Svenshögen","58.1447","11.9361"
"SESvi","SmallStation","Södra Vi","57.7402","15.7929"
"SESvj","Junction","Svedje","62.6899","17.8861"
"SESvk","SmallStation","Svenstavik","62.7719","14.4407"
"SESvt","Junction","Sävast","65.7624","21.7665"
"SESvå","Junction","Svartå","59.1323","14.5159"
"SESvö","Junction","Skytts Vemmerlöv","55.4101","13.1541"
"SESy","SmallStation","Stockaryd","57.3098","14.5919"
"SESyd","SmallStation","Skillingaryd","57.4284","14.0907"
"SESån","Junction","Stenåsen","59.5033","13.3378"
"SESårs","Junction","Söråkers södra","62.5499","17.4405"
"SESän","Junction","Sävastklinten","65.7763","21.7494"
"SESäp","Junction","Skärpan","60.3081","17.5769"
"SESäu","Junction","Sunnäsbruk","61.1086","17.1253"
"SESäy","Junction","Säby","59.8291","17.7026"
"SESöc","SmallStation","Södertälje centrum","59.1911","17.6284"
"SESöd","SmallStation","Södertälje hamn","59.1776","17.6472"
"SESödy","Junction","Söderby","59.1964","17.7936"
"SESög","SmallStation","Sölvesborg","56.0494","14.5831"
"SESök","Junction","Stöcke","63.7428","20.2587"
"SESöt","Junction","Södra utmarken","56.2371","12.8455"
"SESöu","SmallStation","Södertälje syd undre","59.1634","17.6455"
"SESöv","Junction","Skelleftehamns övre","64.6872","21.2275"
"SESöö","SmallStation","Södertälje syd övre","59.1633","17.648"
"SET","SmallStation","Töreboda","58.7046","14.1272"
"SETb","SmallStation","Tillberga","59.6874","16.6241"
"SETba","Junction","Tystberga","58.8485","17.2361"
"SETbn","Junction","Torbacken","58.0687","12.243"
"SETbo","SmallStation","Tobo","60.259","17.6338"
"SETdj","Junction","Trödje","60.8144","17.1991"
"SETeo","Junction","Torebo","56.9491","12.4557"
"SETet","Junction","Tolikberget","66.4133","20.9072"
"SETgp","SmallStation","Tågarp","55.9274","12.9474"
"SETh","SmallStation","Tenhult","57.7052","14.3266"
"SEThd","SmallStation","Tallhed","61.2101","14.7091"
"SEThl","Junction","Tornhill","55.7381","13.1898"
"SEThm","Junction","Träskholm","65.2322","20.0951"
"SEThn","SmallStation","Trollhättan","58.2876","12.2989"
"SEThö","SmallStation","Trehörningsjö","63.6914","18.8656"
"SETip","SmallStation","Tierp","60.3458","17.5131"
"SETjä","Junction","Tjärnvik","62.1","17.3197"
"SETl","Junction","Tallåsen","61.8673","16.0127"
"SETlg","SmallStation","Tällberg","60.8188","15.0204"
"SETli","SmallStation","Tomelilla","55.5458","13.9497"
"SETmö","Junction","Tomteboda övre","59.3511","18.0164"
"SETnk","SmallStation","Torneträsk","68.2175","19.7079"
"SETns","SmallStation","Tranås","58.0381","14.9751"
"SETnu","SmallStation","Tanum","58.7136","11.2956"
"SETo","SmallStation","Torpshammar","62.4727","16.3354"
"SETot","Junction","Toresta","59.5336","17.5745"
"SETou","SmallStation","Torup","56.9576","13.0795"
"SEToy","SmallStation","Torsby","60.1365","13.0027"
"SETp","SmallStation","Teckomatorp","55.8705","13.0825"
"SETre","SmallStation","Trekanten","56.7029","16.1134"
"SETrg","SmallStation","Trelleborg","55.3715","13.1611"
"SETri","SmallStation","Triangeln","55.5925","13.0009"
"SETrå","SmallStation","Timrå","62.4864","17.3303"
"SETs","SmallStation","Tungelsta","59.1028","18.0465"
"SETsg","Junction","Tågsjöberg","63.6735","16.742"
"SETsl","Junction","Tisselskog","58.8972","12.3856"
"SETså","SmallStation","Torsåker","60.5146","16.4903"
"SETtu","Junction","Tortuna","59.6698","16.7208"
"SETu","SmallStation","Tumba","59.1995","17.8384"
"SETun","Junction","Tunneby","56.4576","14.0828"
"SETvb","Junction","Tväråbäck","63.9895","19.7241"
"SETvä","SmallStation","Tvärålund","64.0997","19.6776"
"SETy","SmallStation","Tyringe","56.1596","13.5984"
"SETye","Junction","Tyllered","57.0199","12.3916"
"SETåv","Junction","Trångsviken","63.3318","14.0134"
"SETäl","Junction","Tälle","59.0502","15.019"
"SETö","SmallStation","Tjörnarp","56.0015","13.6312"
"SETöe","Junction","Tösse","58.9714","12.6434"
"SETöv","Junction","Töva","62.3737","17.1098"
"SEU","SmallStation","Uppsala central","59.8579","17.6487"
"SEUdl","SmallStation","Ulriksdal","59.3798","18.0013"
"SEUf","SmallStation","Ulriksfors","63.8323","15.6208"
"SEUly","Junction","Ulvshyttan","60.3301","15.3568"
"SEUn","SmallStation","Undersåker","63.315","13.2385"
"SEUna","Junction","Uppsala norra","59.8672","17.6122"
"SEUpv","SmallStation","Upplands Väsby","59.5205","17.8992"
"SEUtp","Junction","Ulvstorp","57.4771","14.6893"
"SEUts","Junction","Utsikten","59.2031","17.8964"
"SEUv","SmallStation","Uddevalla central","58.3542","11.9234"
"SEUvn","Junction","Ursviken","64.7084","21.17"
"SEUå","SmallStation","Umeå central","63.8301","20.267"
"SEUågb","Junction","Umeå godsbangård","63.8447","20.2375"
"SEUåö","SmallStation","Umeå östra","63.8182","20.2936"
"SEV","SmallStation","Värnamo","57.1864","14.036"
"SEVaa","SmallStation","Vara","58.261","12.9515"
"SEVag","SmallStation","Vargön","58.3598","12.3912"
"SEVaj","SmallStation","Varjisträsk","66.0446","19.5299"
"SEVb","SmallStation","Varberg","57.1094","12.2481"
"SEVdb","SmallStation","Värmlands Bro","59.1853","13.0139"
"SEVdi","SmallStation","Veddige","57.2667","12.3368"
"SEVdn","SmallStation","Vindeln","64.2041","19.714"
"SEVdv","Junction","Vedevåg","59.5236","15.2823"
"SEVe","SmallStation","Väse","59.3816","13.8532"
"SEVeas","Junction","Velanda södra","58.2181","12.3255"
"SEVed","SmallStation","Vedum","58.169","12.9987"
"SEVf","Junction","Vartofta","58.0921","13.628"
"SEVfa","SmallStation","Vissefjärda","56.538","15.5826"
"SEVfo","SmallStation","Viskafors","57.6293","12.8451"
"SEVg","SmallStation","Vänersborg central","58.3775","12.3187"
"SEVgd","SmallStation","Vaggeryd","57.4982","14.1454"
"SEVgå","SmallStation","Vårgårda","58.0311","12.8093"
"SEVh","Junction","Vegeholm","56.2087","12.7938"
"SEVhd","SmallStation","Vagnhärad","58.9458","17.4988"
"SEVhe","SmallStation","Västerhaninge","59.123","18.1034"
"SEVhy","Junction","Vikmanshyttan","60.2966","15.8624"
"SEVia","Junction","Via","61.8079","17.1911"
"SEVib","SmallStation","Vimmerby","57.663","15.8585"
"SEVibh","Junction","Vimmerby Hamra","57.6371","15.869"
"SEVid","SmallStation","Västra Ingelstad","55.4915","13.1065"
"SEVim","Junction","Vimnarp","57.7076","14.6928"
"SEVip","Junction","Viarp","56.333","12.8073"
"SEVisk","Junction","Viskan","62.4495","16.4335"
"SEVj","SmallStation","Vassijaure","68.4296","18.2577"
"SEVjm","SmallStation","Vojmån","64.7918","16.8165"
"SEVk","SmallStation","Västervik","57.7556","16.6429"
"SEVl","SmallStation","Vallsta","61.5181","16.3675"
"SEVlb","SmallStation","Vilhelmsborg","55.427","13.732"
"SEVld","Junction","Vinlidsberg","65.017","17.0634"
"SEVln","Junction","Vallnäs","57.6177","15.4748"
"SEVm","Junction","Vattjom","62.3673","17.0058"
"SEVma","SmallStation","Vilhelmina","64.623","16.6514"
"SEVmat","Junction","Vilhelmina timmer","64.6494","16.6138"
"SEVme","Junction","VME","59.4058","16.446"
"SEVmu","Junction","Villersmuren","60.6072","16.6963"
"SEVn","Junction","Värtan","59.3511","18.0949"
"SEVns","SmallStation","Vännäs","63.9103","19.749"
"SEVnt","Junction","Vackernäset","63.0041","16.118"
"SEVo","SmallStation","Vansbro","60.5125","14.2261"
"SEVpm","Junction","Varpemossen","58.1277","12.3032"
"SEVr","SmallStation","Vingåker","59.0421","15.8765"
"SEVre","Junction","Vrena","58.8624","16.7043"
"SEVru","Junction","Vekerum","56.177","14.7807"
"SEVrö","Junction","Värö","57.2386","12.1961"
"SEVs","SmallStation","Vislanda","56.7887","14.4565"
"SEVsd","SmallStation","Vikingstad","58.3835","15.433"
"SEVsg","SmallStation","Valskog","59.4436","15.9513"
"SEVsk","Junction","Vuonoskogen","65.8605","23.7249"
"SEVso","SmallStation","Virsbo","59.8719","16.0843"
"SEVsö","Junction","Viresjö","58.2039","15.913"
"SEVt","Junction","Vretstorp","59.0216","14.8649"
"SEVta","SmallStation","Vetlanda","57.4259","15.0816"
"SEVto","Junction","Västra Torup","56.1442","13.5077"
"SEVv","Junction","Vallvik","61.1934","17.1293"
"SEVå","SmallStation","Västerås central","59.6077","16.5529"
"SEVåb","Junction","Vålberg","59.3989","13.1974"
"SEVåk","SmallStation","Vallåkra","55.9638","12.8622"
"SEVån","Junction","Västerås norra","59.646","16.5831"
"SEVä","Junction","Väring","58.5115","13.9594"
"SEVäd","Junction","Vätteryd","56.0192","13.6549"
"SEVän","Junction","Vännäs norra","63.9295","19.7414"
"SEVäy","SmallStation","Västeraspby","63.0557","17.7476"
"SEVö","SmallStation","Växjö","56.8767","14.8053"
"SEVöv","SmallStation","Vinslöv","56.1049","13.9165"
"SEY","SmallStation","Ystad","55.4274","13.8255"
"SEYb","SmallStation","Ytterby","57.8623","11.9174"
"SEYl","SmallStation","Ytterhogdal","62.1973","14.8554"
"SEYö","Junction","Yttersjön","64.4104","19.6594"
"SEÅ","Junction","Åsbro","58.9982","15.0612"
"SEÅb","SmallStation","Åsensbruk","58.8054","12.4256"
"SEÅba","Junction","Ålberga","58.7241","16.5774"
"SEÅbe","SmallStation","Årstaberg","59.2994","18.0277"
"SEÅbs","Junction","Åby södra","58.6589","16.1804"
"SEÅd","Junction","Ådalsliden","63.4396","16.879"
"SEÅg","SmallStation","Ånge","62.5237","15.6568"
"SEÅgy","Junction","Ångebyn","62.5242","15.6099"
"SEÅh","Junction","Åshammar","60.6485","16.5479"
"SEÅhus","Junction","Åhus","55.9276","14.3007"
"SEÅk","SmallStation","Åkarp","55.6573","13.1082"
"SEÅkg","Junction","Årskogen","62.1438","17.3484"
"SEÅks","Junction","Åkers styckebruk","59.2523","17.0952"
"SEÅkt","Junction","Åskott","63.2802","14.6352"
"SEÅl","SmallStation","Åmål","59.0464","12.6983"
"SEÅlg","Junction","Ålsäng","59.4157","15.7102"
"SEÅm","Junction","Åmsele","64.4887","19.325"
"SEÅmn","Junction","Ångsågsmossen","56.2124","14.9775"
"SEÅmy","Junction","Åmyran","61.9898","17.2579"
"SEÅnm","Junction","Ånimskog","58.8772","12.5689"
"SEÅnn","SmallStation","Ånn","63.3214","12.539"
"SEÅp","SmallStation","Åstorp","56.1333","12.9511"
"SEÅrd","Junction","Åryd","56.8208","14.9835"
"SEÅre","SmallStation","Åre","63.3994","13.0749"
"SEÅsal","SmallStation","Åsarna central","62.6471","14.3745"
"SEÅst","Junction","Åsträsk","64.6157","19.9752"
"SEÅt","SmallStation","Åmotfors","59.7684","12.3664"
"SEÅvg","SmallStation","Åtvidaberg","58.2036","16.0021"
"SEÄ","SmallStation","Ängelholm","56.2468","12.8534"
"SEÄbg","SmallStation","Ängelsberg","59.957","16.0092"
"SEÄfs","Junction","Äggfors","63.295","13.7074"
"SEÄh","SmallStation","Älmhult","56.55","14.1368"
"SEÄl","Junction","Älgarås","58.8135","14.2554"
"SEÄlo","SmallStation","Älvho","61.498","14.7473"
"SEÄn","SmallStation","Älvängen","57.9544","12.1066"
"SEÄng","SmallStation","Äng","57.6924","14.5668"
"SEÄnö","Junction","Ängersjö","63.6038","19.8046"
"SEÄs","SmallStation","Älvsjö","59.2786","18.0113"
"SEÄsg","Junction","Älvsjö godsbangård","59.2911","18.0208"
"SEÄtk","Junction","Ättekulla","56.0216","12.7677"
"SEÄy","SmallStation","Älvsbyn","65.6782","20.9933"
"SEÖ","SmallStation","Örtofta","55.7785","13.2427"
"SEÖa","Junction","Ökna","59.4012","15.7251"
"SEÖal","Junction","Österalnö","63.3551","18.515"
"SEÖbn","Junction","Örabäcken","62.1113","15.7547"
"SEÖda","SmallStation","Ödåkra","56.1047","12.7451"
"SEÖg","SmallStation","Östra Grevie","55.4644","13.1345"
"SEÖh","SmallStation","Örbyhus","60.2293","17.7035"
"SEÖhlg","Junction","Överhogdals grusgrop","62.2319","14.8233"
"SEÖj","Junction","Östansjö","59.0456","14.9813"
"SEÖk","SmallStation","Örnsköldsviks central","63.2884","18.7047"
"SEÖkn","SmallStation","Örnsköldsvik norra","63.3061","18.7249"
"SEÖl","Junction","Ölme","59.3609","14.0054"
"SEÖna","Junction","Önaskogen","58.6215","15.1211"
"SEÖnd","SmallStation","Önnestad","56.0667","14.0168"
"SEÖr","SmallStation","Örebro central","59.2782","15.211"
"SEÖrs","SmallStation","Örsjö","56.6967","15.7498"
"SEÖs","SmallStation","Östersunds central","63.17","14.6381"
"SEÖso","SmallStation","Ösmo","58.9845","17.9026"
"SEÖså","Junction","Österås","63.2113","17.1844"
"SEÖte","SmallStation","Östertälje","59.185","17.6584"
"SEÖv","Junction","Östavall","62.4293","15.4732"
"SEÖvm","SmallStation","Överum","57.9824","16.3255"
"SEÖvn","SmallStation","Östervärn","55.6068","13.0336"
"SEÖvö","Junction","Övsjö","62.9649","15.9864"
"SEÖx","SmallStation","Öxnered","58.3568","12.2726"
"SEÖä","Junction","Öreälv","63.7936","19.3434"
"EU00234","BorderPoint","Kornsjö gränsen","58.93476","11.66987"
"EU00235","BorderPoint","Charlottenberg gränsen","59.93187","12.24341"
"EU00236","BorderPoint","Storlien gränsen","63.337","12.0605"
"EU00237","BorderPoint","Riksgränsen Vj-Bjf","68.43004","18.10572"
"EU00239","BorderPoint","Riksgräns Haparanda - Tornio","65.827855","24.150731"
"SEPhm","Junction","Peberholm","55.6006","12.7487"
"EU00141","BorderPoint","Peberholm gränsen","55.605923","12.738071"
"SE00100","DomesticBorderPoint","Öresundsbro Konsortiet - Trafikverket km 281+810","55.565508","12.90286"
"SELnk","Junction","Lernacken","55.5656","12.9055"
