"id","extralabel","name","latitude","longitude"
"IT00229","DomesticBorderPoint","SETTIMO TORINESE","45.1398382","7.7693301"
"IT17401","PrivateSiding","RACCORDO ENI","45.1749","7.7741"
"IT00880","Station","VOLPIANO","45.2004538","7.7796206"
"IT00881","Station","SAN BENIGNO","45.2184707","7.7821397"
"IT00882","Station","BOSCONERO","45.2184707","7.7821397"
"IT00883","Station","FELETTO","45.303853","7.744719"
"IT00884","Station","RIVAROLO CANAVESE","45.3284995","7.7240155"
"IT07244","Junction","PM 228","43.3526034","12.9465416"
"IT07007","PassengerTerminal","BASTIA","43.0713323","12.5477475"
"IT07902","PassengerStop","BELLANTE RIPATTONE","42.705772","13.8379609"
"IT07511","PassengerTerminal","CUPRAMARITTIMA","43.0234877","13.8608127"
"IT07020","Station","PERUGIA CAPITINI","43.1023077","12.3558696"
"IT07212","PassengerTerminal","GAIFANA","43.1818364","12.7841403"
"IT07301","SmallStation","MATELICA","43.2539433","13.0150804"
"IT07107","PassengerTerminal","MAROTTA-MONDOLFO","43.7697356","13.1372669"
"IT07110","PassengerTerminal","MONTEMARCIANO","43.6513828","13.346471"
"IT07213","PassengerTerminal","NOCERA UMBRA","43.100661","12.7672126"
"IT07716","Junction","PM TEATINO","42.4144521","14.1761944"
"IT07505","PassengerStop","POTENZA PICENA MONTELUPONE","43.360176","13.6981374"
"IT07005","PassengerTerminal","PERUGIA PONTE S.GIOVANNI","43.0917985","12.4382383"
"IT07822","PassengerTerminal","PORTO DI VASTO","42.1685447","14.695968"
"IT08905","PassengerStop","RIVISONDOLI-PESCOCOSTANZO","41.8772946","14.079304"
"IT07804","PassengerTerminal","ROSETO DEGLI ABRUZZI","42.6778614","14.0153364"
"IT07312","PassengerStop","S.CLAUDIO","43.2873514","13.5327395"
"IT07514","SmallStation","PORTO D'ASCOLI","42.9127921","13.8968035"
"IT07113","Station","ANCONA","43.6077192","13.4976546"
"IT07411","PassengerTerminal","SELLA DI CORNO","42.3604666","13.1898774"
"IT07235","PassengerStop","S.LIBERATO","42.4788505","12.4430065"
"IT07807","PassengerTerminal","SILVI","42.5591106","14.1103554"
"IT07434","PassengerStop","SORGENTI DEL PESCHIERA","42.3642797","12.996969"
"IT07900","PassengerTerminal","TERAMO","42.6605458","13.7158763"
"IT07415","PassengerStop","L'AQUILA SASSA NUCLEO SVILUPPO","42.3637869","13.3124854"
"IT07426","PassengerStop","TIONE DEGLI ABRUZZI","42.2049086","13.642049"
"IT07218","PassengerTerminal","TREVI","42.8762073","12.7337199"
"IT08919","PassengerStop","CAMPO DI GIOVE-MONTE MAIELLA","41.9932642","14.069079"
"IT07824","PassengerTerminal","VASTO S.SALVO","42.0798329","14.739474"
"IT07408","PassengerTerminal","ANTRODOCO BORGO VELINO","42.4098525","13.0709585"
"IT07429","PassengerStop","CANETRA","42.3915833","13.0291623"
"IT07901","PassengerTerminal","CASTELLALTO CANZANO","42.6956428","13.7930232"
"IT07204","PassengerTerminal","CASTELPLANIO CUPRAMONTANA","43.481398","13.0847218"
"IT07102","PassengerTerminal","CATTOLICA S.GIOVANNI GABICCE","43.9599216","12.74509"
"IT07406","PassengerTerminal","CITTADUCALE","42.3877667","12.9426819"
"IT07225","Junction","GIUNCANO","42.6478028","12.6377006"
"IT07813","PassengerTerminal","FRANCAVILLA AL MARE","42.4213069","14.2880501"
"IT07556","PassengerStop","MARINO DEL TRONTO-FOLIGNANO","42.8443384","13.6329799"
"IT07414","Station","L'AQUILA","42.3510582","13.3849543"
"IT07554","PassengerStop","MONTEPRANDONE","42.8941797","13.8499841"
"IT07202","SmallStation","JESI","43.5201516","13.2513107"
"IT07217","Station","FOLIGNO","42.954267","12.7111086"
"IT07808","PassengerTerminal","MONTESILVANO","42.5161953","14.1517991"
"IT07502","PassengerStop","OSIMO CASTELFIDARDO","43.4970288","13.5472516"
"IT07811","PassengerStop","PESCARA PORTA NUOVA","42.4572907","14.2121382"
"IT07942","PassengerStop","SANSECONDO","43.400441","12.2375661"
"IT07430","PassengerStop","TERNI COSPEA","42.549617","12.6250719"
"IT07405","PassengerTerminal","RIETI","42.4059236","12.8625967"
"IT07000","PassengerStop","TUORO SUL TRASIMENO","43.1966301","12.0796067"
"IT07024","PassengerStop","COLLI DEL TRONTO","42.8670337","13.7482226"
"IT07232","PassengerStop","CANCELLI DI FABRIANO","43.3077939","12.8454438"
"IT07008","Station","ASSISI","43.0589213","12.5853097"
"IT07009","PassengerStop","CANNARA","43.0195907","12.628717"
"IT07422","PassengerTerminal","BEFFI","42.1973414","13.6607548"
"IT07407","PassengerTerminal","CASTEL S.ANGELO","42.3796672","13.0176098"
"IT07243","Junction","PM GALLERIA FOSSATO","43.2995013","12.7844415"
"IT07404","PassengerTerminal","CONTIGLIANO","42.4120694","12.7791433"
"IT07200","PassengerStop","CASTELFERRETTI-FALCONARA AEROPORTO","43.6072964","13.3575172"
"IT07555","PassengerStop","MALTIGNANO DEL TRONTO","42.8449103","13.6647267"
"IT07307","Station","MACERATA","43.2930928","13.4551654"
"IT07119","PassengerStop","MISANO ADRIATICO","43.977486","12.6971326"
"IT07310","PassengerTerminal","MONTECOSARO","43.2892934","13.6463765"
"IT07903","PassengerStop","NOTARESCO","42.7065052","13.8763442"
"IT07904","PassengerStop","MOSCIANO S.ANGELO","42.7103118","13.9085382"
"IT07815","SmallStation","ORTONA","42.3541914","14.4076865"
"IT07233","PassengerStop","PONTE PARRANO DI NOCERA UMBRA","43.1374328","12.7763797"
"IT07234","PassengerStop","PANTIERE DI CASTELBELLINO","43.5009386","13.1831095"
"IT07806","PassengerTerminal","PINETO ATRI","42.6077371","14.0690613"
"IT07600","PassengerTerminal","RAIANO","42.0979269","13.8090795"
"IT07114","PassengerStop","ANCONA STADIO","43.5661983","13.5206407"
"IT08912","PassengerStop","S.PIETRO AVELLANA-CAPRACOTTA","41.7697534","14.1998429"
"IT08906","SmallStation","ROCCARASO","41.8508306","14.0792844"
"IT07304","SmallStation","TOLENTINO","43.2145492","13.2904986"
"IT07417","PassengerStop","L'AQUILA S.GREGORIO","42.3270105","13.4910523"
"IT08555","PassengerStop","VILLA S.MICHELE","41.7448202","14.2388086"
"IT07210","Junction","JESI INTERPORTO","43.5664996","13.2970106"
"IT08908","PassengerStop","ALFEDENA-SCONTRONE","41.7382202","14.0446481"
"IT07224","PassengerTerminal","BAIANO DI SPOLETO","42.7262356","12.6636161"
"IT07712","Station","CHIETI","42.3568992","14.1381393"
"IT07420","PassengerTerminal","FAGNANO CAMPANA","42.250574","13.5627473"
"IT07207","PassengerTerminal","ALBACINA","43.3456897","12.9865019"
"IT07421","PassengerStop","FONTECCHIO","42.2228202","13.6044466"
"IT07311","PassengerStop","GAGLIOLE","43.220294","13.0752228"
"IT07403","PassengerTerminal","GRECCIO","42.4628674","12.777001"
"IT07710","PassengerTerminal","MANOPPELLO","42.3058398","14.0610471"
"IT07802","Station","GIULIANOVA","42.751674","13.9657283"
"IT07551","PassengerTerminal","OFFIDA CASTEL DI LAMA","42.8620688","13.7202774"
"IT07817","DomesticBorderPoint","S.VITO LANCIANO","42.3056917","14.4400948"
"IT07510","PassengerTerminal","PEDASO","43.0946854","13.8449027"
"IT07112","PassengerStop","PALOMBINA","43.6169957","13.4297116"
"IT07428","PassengerStop","POGGIO FIDONI","42.3958116","12.7954218"
"IT07601","PassengerStop","PRATOLA PELIGNA SUPERIORE","42.0804147","13.8722219"
"IT07101","Station","RICCIONE","43.9992117","12.6585577"
"IT07100","PassengerStop","RIMINI MIRAMARE","44.0303814","12.6181144"
"IT07707","PassengerTerminal","SCAFA S.VALENTINO-CARAMANICO TERME","42.2673304","13.9985088"
"IT08900","PassengerStop","SULMONA-INTRODACQUA","42.0382373","13.9215551"
"IT07706","PassengerTerminal","TORRE DEI PASSERI","42.2440182","13.9375223"
"IT07314","PassengerStop","MACERATA UNIVERSITA'","43.2881501","13.4720465"
"IT07306","PassengerStop","URBISAGLIA SFORZACOSTA","43.2574507","13.4169247"
"IT07026","PassengerStop","NEPEZZANO-PIANO D'ACCIO","42.6811356","13.7519093"
"IT07801","PassengerStop","TORTORETO LIDO","42.8045656","13.9389878"
"IT07437","FreightTerminal","INTERPORTO D'ABRUZZO","42.3308626","14.112699"
"IT07226","Station","TERNI","42.5707638","12.6510878"
"IT07423","PassengerStop","ACCIANO","42.1759922","13.7113415"
"IT07308","PassengerTerminal","CORRIDONIA MOGLIANO","43.281613","13.4776951"
"IT07435","PassengerStop","ANTRODOCO CENTRO","42.4153938","13.0761954"
"IT07550","Station","ASCOLI PICENO","42.8554684","13.5879329"
"IT07021","PassengerStop","CAMERANO ASPIO","43.5295706","13.5207223"
"IT07203","PassengerStop","MONTECAROTTO-CASTELBELLINO","43.4999942","13.1480937"
"IT07424","PassengerTerminal","MOLINA-CASTELVECCHIO SUBEQUO","42.1434713","13.7396419"
"IT07401","PassengerTerminal","MARMORE","42.5474943","12.715227"
"IT07416","PassengerTerminal","PAGANICA","42.3347537","13.4643146"
"IT07229","SmallStation","NERA MONTORO","42.4978528","12.4765811"
"IT07001","PassengerTerminal","PASSIGNANO SUL TRASIMENO","43.188327","12.1331271"
"IT08901","PassengerStop","PETTORANO SUL GIZIO","41.9745602","13.9650335"
"IT08915","PassengerStop","PESCOLANCIANO-CHIAUCI","41.6790042","14.3415713"
"IT07104","Station","PESARO","43.905995","12.9048435"
"IT07019","PassengerStop","PESCARA TRIBUNALE","42.4487598","14.2201792"
"IT07703","PassengerTerminal","POPOLI VITTORITO","42.1723497","13.8261443"
"IT07700","PassengerTerminal","PRATOLA PELIGNA","42.1024201","13.8763401"
"IT07410","PassengerTerminal","ROCCA DI CORNO","42.3881718","13.1439418"
"IT07557","PassengerStop","S.FILIPPO","42.8497824","13.5999387"
"IT07810","Station","PESCARA","42.4677815","14.2050529"
"IT07111","Station","FALCONARA MARITTIMA","43.6305609","13.3973727"
"IT07303","SmallStation","S.SEVERINO MARCHE","43.2299551","13.1834833"
"IT07205","PassengerTerminal","SERRA S.QUIRICO","43.4448749","13.0273997"
"IT08917","PassengerStop","SESSANO DEL MOLISE","41.6395938","14.3285134"
"IT07940","Station","CITTA' DI CASTELLO","43.4551424","12.2470244"
"IT07108","Station","SENIGALLIA","43.7162667","13.2216442"
"IT08913","PassengerStop","VASTOGIRARDI","41.7394815","14.2493267"
"IT07500","PassengerTerminal","VARANO","43.5747196","13.5234294"
"IT07961","Station","PONTE FELCINO","43.1314369","12.4368305"
"IT07963","Station","PISCILLE","43.0952257","12.4102924"
"IT07219","PassengerTerminal","CAMPELLO SUL CLITUNNO","42.8228174","12.7612473"
"IT08903","SmallStation","CAMPO DI GIOVE","42.0079685","14.0414827"
"IT07704","PassengerTerminal","BUSSI","42.1941479","13.8490768"
"IT07013","PassengerStop","PERUGIA SILVESTRINI","43.0813635","12.3513575"
"IT08910","PassengerTerminal","CASTEL DI SANGRO","41.7778259","14.1120447"
"IT07201","PassengerStop","CHIARAVALLE","43.5954899","13.3276463"
"IT07014","PassengerStop","MONTE MELINO","43.1063004","12.2497055"
"IT07209","PassengerTerminal","FOSSATO DI VICO GUBBIO","43.2837957","12.7572495"
"IT07003","PassengerTerminal","ELLERA CORCIANO","43.0946995","12.3185772"
"IT07230","PassengerTerminal","NARNI AMELIA","42.531276","12.5195853"
"IT07012","PassengerStop","OSPEDALICCHIO","43.0823647","12.5065759"
"IT07109","PassengerStop","MARZOCCA","43.6773475","13.2879201"
"IT07506","Station","CIVITANOVA MARCHE-MONTEGRANARO","43.3091529","13.7257891"
"IT07552","PassengerStop","SPINETOLI COLLI","42.8703181","13.7627961"
"IT07413","PassengerTerminal","SASSA TORNIMPARTE","42.3605578","13.2953359"
"IT07010","PassengerTerminal","SPELLO","42.9844063","12.6689014"
"IT07402","Junction","PM STRONCONE","42.5307752","12.6448173"
"IT07221","PassengerTerminal","SPOLETO","42.7481244","12.736138"
"IT07214","PassengerStop","VALTOPINA","43.056891","12.7550798"
"IT07025","PassengerStop","CHIETI-MADONNA DELLE PIANE","42.3722437","14.1428564"
"IT07018","SmallStation","FOSSACESIA-TORINO DI SANGRO","42.2371941","14.5220192"
"IT07313","PassengerStop","MACERATA FONTESCODELLA","43.2923936","13.4408272"
"IT07015","PassengerStop","ANCONA TORRETTE","43.6101031","13.4558115"
"IT08539","Station","SULMONA","42.0608373","13.9071499"
"IT07023","PassengerStop","MONSAMPOLO DEL TRONTO","42.8814811","13.8035556"
"IT07022","PassengerStop","SPINETOLI VILLA S.PIO X","42.8782408","13.7933513"
"IT07800","PassengerTerminal","ALBA ADRIATICA-NERETO-CONTROGUERRA","42.8338802","13.9173647"
"IT08902","PassengerStop","CANSANO","41.9980544","14.0230077"
"IT07006","PassengerStop","PERUGIA UNIVERSITA'","43.1171012","12.3563755"
"IT07427","PassengerStop","LABRO MOGGIO","42.5061332","12.7462183"
"IT08904","PassengerStop","PALENA","41.9183993","14.1051775"
"IT07305","PassengerStop","POLLENZA","43.240928","13.3670243"
"IT07105","PassengerTerminal","FANO","43.8429629","13.0247652"
"IT07507","PassengerTerminal","PORTO S.ELPIDIO","43.256849","13.7607379"
"IT07208","Station","FABRIANO","43.3454049","12.9053176"
"IT07708","PassengerStop","ALANNO","42.2871774","14.0195824"
"IT07117","PassengerStop","FALCONARA STADIO","43.6264447","13.3815746"
"IT07513","Station","S.BENEDETTO DEL TRONTO","42.9543845","13.8822897"
"IT07017","PassengerStop","PESCARA S.MARCO","42.4444336","14.2076608"
"IT08914","SmallStation","CAROVILLI-ROCCASICURA","41.7124839","14.2997239"
"IT07215","Junction","CAPODACQUA PIEVE FANONICA","43.0267725","12.7541036"
"IT07300","PassengerStop","CERRETO D'ESI","43.3220512","12.98318"
"IT07302","SmallStation","CASTELRAIMONDO CAMERINO","43.2105112","13.0572693"
"IT07206","PassengerTerminal","GENGA S.VITTORE TERME","43.4030151","12.9771639"
"IT07821","PassengerStop","CASALBORDINO POLLUTRI","42.1936593","14.6330404"
"IT07211","PassengerTerminal","GUALDO TADINO","43.2334693","12.7671944"
"IT07512","PassengerStop","GROTTAMMARE","42.993805","13.8702648"
"IT07002","PassengerTerminal","MAGIONE","43.1373577","12.202243"
"IT07309","PassengerTerminal","MORROVALLE MONTE S.GIUSTO","43.2791871","13.5828394"
"IT07714","PassengerStop","PIANO D'ORTA BOLOGNANO","42.2544499","13.9515073"
"IT07503","PassengerTerminal","LORETO","43.4483741","13.6204474"
"IT07004","Station","PERUGIA","43.1038115","12.3755778"
"IT07504","PassengerStop","PORTO RECANATI","43.4337229","13.6614562"
"IT07216","PassengerStop","SCANZANO BELFIORE","42.9839269","12.7376984"
"IT07409","PassengerTerminal","ROCCA DI FONDI","42.3979939","13.0958307"
"IT07418","PassengerTerminal","S.DEMETRIO DE' VESTINI","42.2944389","13.5365478"
"IT07508","PassengerTerminal","PORTO S.GIORGIO FERMO","43.1797169","13.7974881"
"IT07705","PassengerStop","TOCCO CASTIGLIONE","42.2265324","13.904531"
"IT07431","PassengerStop","L'AQUILA CAMPO DI PILE","42.3544527","13.3490643"
"IT07814","PassengerStop","TOLLO CANOSA SANNITA","42.3943264","14.3395274"
"IT07436","PassengerStop","BAZZANO","42.3346824","13.4434282"
"IT07947","PassengerStop","MONTECASTELLI","43.3404435","12.2940686"
"IT07011","PassengerStop","TORRICELLA","43.1584922","12.1879426"
"IT07805","PassengerStop","SCERNE DI PINETO","42.6422073","14.0416764"
"IT11453","PassengerStop","ALBANO DI LUCANIA","40.5747071","16.0212546"
"IT11307","SmallStation","ALTAMURA","40.8376683","16.5517382"
"IT11208","PassengerStop","BARILE","40.9430418","15.6709604"
"IT11455","PassengerStop","CALCIANO","40.5951175","16.2025228"
"IT11454","Junction","CAMPOMAGGIORE-PIETRAPERTOSA","40.5510888","16.0874416"
"IT07825","PassengerTerminal","MONTENERO PETACCIATO","42.0332876","14.8510058"
"IT11101","SmallStation","INCORONATA","41.4081739","15.6507315"
"IT11103","PassengerTerminal","CERIGNOLA CAMPAGNA","41.3156623","15.8973064"
"IT11509","PassengerTerminal","PALAGIANO MOTTOLA","40.6017428","17.0654772"
"IT11002","FreightTerminal","PM CAGIONI","40.5113215","17.1525949"
"IT11000","Switch","DEV. ESTR. BARI CENTRALE","41.1172672","16.8627285"
"IT11459","PassengerTerminal","PISTICCI","40.4208486","16.5521753"
"IT11310","PassengerTerminal","SANTERAMO","40.8025966","16.7640309"
"IT11056","PassengerStop","SIPONTO","41.6129669","15.8955763"
"IT11520","Junction","PM S.NICOLA","40.4812648","17.1967469"
"IT11135","PassengerTerminal","S.VITO DEI NORMANNI","40.6503507","17.8185829"
"IT11112","Station","TRANI","41.2726967","16.4176477"
"IT11460","PassengerTerminal","BERNALDA","40.3976122","16.6822732"
"IT11508","PassengerTerminal","PALAGIANELLO","40.6109023","16.9752056"
"IT11030","Junction","PM LESINA","41.8542021","15.2959674"
"IT11451","Junction","BRINDISI DI MONTAGNA","40.6119879","15.9557973"
"IT11501","PassengerTerminal","BITETTO PALO DEL COLLE","41.0456868","16.7436285"
"IT11309","Junction","CASAL SABINI","40.7990238","16.6479051"
"IT11463","PassengerTerminal","CASTELLANETA MARINA","40.4811102","16.9654295"
"IT11602","PassengerTerminal","GROTTAGLIE","40.5289919","17.4245051"
"IT11505","PassengerTerminal","GIOIA DEL COLLE","40.7969832","16.9165644"
"IT11115","SmallStation","GIOVINAZZO","41.1809735","16.6693454"
"IT11601","Junction","MONTEIASI","40.5238532","17.3614568"
"IT11022","Junction","PM RIPALTA","41.9049035","15.2543934"
"IT11457","PassengerTerminal","SALANDRA-GROTTOLE","40.5834539","16.351559"
"IT11201","PassengerStop","SANTUARIO INCORONATA","41.3707214","15.6057432"
"IT11503","Junction","SANNICANDRO DI BARI","40.9588202","16.7537702"
"IT11111","Switch","DEV. BINARIO IM LATO BN/PZ","41.4472856","15.576794"
"IT11205","PassengerTerminal","ROCCHETTA S.ANTONIO-LACEDONIA","41.0790439","15.5505183"
"IT11143","PassengerStop","TREPUZZI","40.4096461","18.0769023"
"IT11123","PassengerStop","BRINDISI CITTADELLA DELLA RICERCA","40.5894021","17.8484211"
"IT11145","DomesticBorderPoint","LECCE","40.3460714","18.1649973"
"IT11020","PassengerTerminal","CAMPOMARINO","41.9574039","15.0424101"
"IT11041","PassengerStop","ENZITETO-CATINO","41.1626718","16.7379613"
"IT11133","PassengerStop","CAROVIGNO","40.7373312","17.6837837"
"IT11148","Station","BARI PARCO NORD","41.1239157","16.8370091"
"IT11144","FreightTerminal","SURBO","40.3668917","18.132912"
"IT11001","PassengerStop","POTENZA UNIVERSITA'","40.6432577","15.8118272"
"IT11458","PassengerTerminal","FERRANDINA-SCALO MATERA","40.5165694","16.4752815"
"IT11211","PassengerStop","FILIANO","40.8371576","15.7522921"
"IT11219","Junction","LEONESSA","41.062304","15.5950927"
"IT11502","PassengerStop","GRUMO APPULA","41.0151326","16.7192069"
"IT11605","PassengerTerminal","ORIA","40.5081693","17.6465399"
"IT11217","PassengerTerminal","POTENZA SUPERIORE","40.6458565","15.8009789"
"IT11106","PassengerTerminal","TRINITAPOLI-S.FERDINANDO DI PUGLIA","41.3496798","16.0908464"
"IT11510","PassengerStop","MASSAFRA","40.5829634","17.1078976"
"IT11120","PassengerStop","BARI ZONA INDUSTRIALE","41.1280592","16.8265306"
"IT11125","PassengerStop","BARI PARCO SUD","41.1149088","16.8985302"
"IT11118","PassengerStop","BARI PALESE MACCHIE","41.1515903","16.7669013"
"IT11116","PassengerTerminal","BARI S.SPIRITO","41.1596573","16.7463244"
"IT11512","FreightTerminal","BELLAVISTA","40.5170774","17.1768958"
"IT11026","Junction","BIVIO/PC METAPONTO","40.4864099","17.1840681"
"IT11507","PassengerStop","CASTELLANETA","40.6194951","16.9286588"
"IT11600","Junction","NASISI","40.5079071","17.2578045"
"IT11129","Station","MONOPOLI","40.952015","17.292456"
"IT11464","PassengerTerminal","PALAGIANO CHIATONA","40.5169998","17.0592157"
"IT11117","FreightTerminal","BARI LAMASINATA","41.1294803","16.8204934"
"IT11128","PassengerTerminal","POLIGNANO A MARE","40.9909307","17.2186812"
"IT11304","PassengerTerminal","SPINAZZOLA","40.9533961","16.0871765"
"IT11209","PassengerTerminal","RIONERO ATELLA RIPACANDIDA","40.9220659","15.6786996"
"IT11216","PassengerStop","TIERA","40.6978113","15.8192797"
"IT11134","FreightTerminal","SURBO SCALO","40.3668917","18.132912"
"IT11057","PassengerStop","MANFREDONIA OVEST","41.6046592","15.8840777"
"IT11025","DomesticBorderPoint","S.SEVERO","41.6845139","15.392568"
"IT11504","PassengerTerminal","ACQUAVIVA DELLE FONTI","40.8928004","16.8398197"
"IT11023","PassengerStop","POGGIO IMPERIALE","41.8074877","15.3508128"
"IT11203","PassengerTerminal","ASCOLI SATRIANO","41.2198558","15.5478331"
"IT11053","PassengerStop","FRATTAROLO","41.5836393","15.8617291"
"IT11406","PassengerStop","CANNE DELLA BATTAGLIA","41.2945833","16.1461735"
"IT11212","PassengerTerminal","CASTEL LAGOPESOLE","40.787677","15.7580905"
"IT11126","PassengerTerminal","BARI TORRE A MARE","41.0826345","16.9957698"
"IT11054","PassengerStop","MANFREDONIA","41.6230462","15.9081342"
"IT11403","PassengerStop","MINERVINO MURGE","41.0817901","16.074973"
"IT11603","DomesticBorderPoint","FRANCAVILLA FONTANA","40.5231435","17.5847107"
"IT11102","PassengerTerminal","ORTANOVA","41.3504308","15.7320625"
"IT11202","PassengerTerminal","ORDONA","41.315003","15.6205737"
"IT11220","PassengerStop","POSSIDENTE","40.7811367","15.7771115"
"IT11213","PassengerStop","PIETRAGALLA","40.753307","15.7921125"
"IT11132","PassengerTerminal","OSTUNI","40.7523466","17.5808006"
"IT11028","Junction","RIGNANO GARGANICO","41.579347","15.4902329"
"IT11215","PassengerStop","POTENZA MACCHIA ROMANA","40.651928","15.8025904"
"IT11119","Station","BARI CENTRALE","41.1177443","16.8695928"
"IT11139","PassengerStop","BRINDISI PERRINO","40.6284497","17.9149049"
"IT11004","PassengerStop","BARI TORRE QUETTA","41.1117956","16.9149379"
"IT11024","PassengerTerminal","APRICENA","41.7784689","15.3819324"
"IT11300","FreightTerminal","S.NICOLA DI MELFI","41.073277","15.6775998"
"IT11461","PassengerTerminal","METAPONTO","40.3684917","16.8151738"
"IT11214","PassengerTerminal","AVIGLIANO LUCANIA","40.7146645","15.7856236"
"IT11043","Junction","CABINA LAMASINATA","41.1330579","16.8138761"
"IT11019","PassengerTerminal","TERMOLI","42.0006283","14.9927916"
"IT11121","PassengerStop","MARCONI","41.1171499","16.8879999"
"IT11402","PassengerStop","CANOSA DI PUGLIA","41.218562","16.0539115"
"IT11514","Junction","PM GROTTALUPARA","40.6933305","16.9259466"
"IT11152","Junction","PBI (EX COZZE)","41.0219337","17.159398"
"IT11456","PassengerTerminal","GRASSANO-GARAGUSO-TRICARICO","40.5933167","16.2410532"
"IT11607","PassengerTerminal","MESAGNE","40.5632027","17.8020854"
"IT11141","PassengerStop","S.PIETRO VERNOTICO","40.4890209","18.0007282"
"IT11452","PassengerTerminal","TRIVIGNO","40.5886029","15.997824"
"IT11517","Switch","DEV. INN.BARI PARCO NORD","41.1141359","16.8430985"
"IT11221","Junction","PM CERVARO","41.4008902","15.5943835"
"IT11204","Junction","CANDELA-S.AGATA DI PUGLIA","41.1514367","15.5331662"
"IT11420","Station","POTENZA CENTRALE","40.6294667","15.8068152"
"IT11210","PassengerTerminal","FORENZA","40.8668321","15.7253357"
"IT11462","PassengerTerminal","GINOSA","40.4291998","16.890968"
"IT11021","PassengerTerminal","CHIEUTI SERRACAPRIOLA","41.9219644","15.1566329"
"IT11218","Junction","PM TIERA","40.6869064","15.8204311"
"IT11306","SmallStation","GRAVINA IN PUGLIA","40.8252071","16.4189292"
"IT11127","PassengerTerminal","MOLA DI BARI","41.0572268","17.0809261"
"IT11110","Switch","DEV. BINARIO IM LATO BA","41.4522798","15.588373"
"IT11051","PassengerStop","AMENDOLA","41.5180261","15.7325716"
"IT11114","PassengerTerminal","MOLFETTA","41.196013","16.5967875"
"IT11113","PassengerTerminal","BISCEGLIE","41.235449","16.4994827"
"IT11131","PassengerStop","CISTERNINO","40.8166504","17.4569012"
"IT11108","Station","BARLETTA","41.3152335","16.278861"
"IT11130","PassengerTerminal","FASANO","40.8517493","17.3859047"
"IT11465","DomesticBorderPoint","TARANTO","40.4837235","17.2240647"
"IT11606","PassengerTerminal","LATIANO","40.5580736","17.7176284"
"IT11136","Station","BRINDISI","40.6343392","17.9389797"
"IT11206","PassengerTerminal","MELFI","40.9898725","15.6468931"
"IT11142","PassengerTerminal","SQUINZANO","40.4392727","18.0461016"
"IT11450","Junction","VAGLIO BASILICATA","40.6563174","15.8801095"
"IT11608","Junction","VILLA CASTELLI","40.5233751","17.4761466"
"IT11516","PassengerStop","MODUGNO","41.0717993","16.7854144"
"IT11003","PassengerStop","BARI VILLAGGIO DEL LAVORATORE","41.1041088","16.8226435"
"IT11100","DomesticBorderPoint","FOGGIA","41.466003","15.5558087"
"IT05302","PassengerStop","OSTERIA NUOVA","44.5848557","11.2353992"
"IT05905","PassengerStop","BARBIANO","44.3872557","11.8780839"
"IT05062","Junction","BIVIO CALDERARA","44.54693","11.2892609"
"IT05077","Junction","BIVIO CROCIALI","44.4898722","11.3759202"
"IT05006","PassengerStop","CADEO","44.9672831","9.8532032"
"IT05122","PassengerStop","CASTAGNO","44.012355","10.9153972"
"IT05099","FreightTerminal","BOLOGNA INTERPORTO","44.6025133","11.3727564"
"IT05056","Station","CASTELBOLOGNESE-RIOLO TERME","44.3253861","11.8041761"
"IT05806","SmallStation","LAVEZZOLA","44.5595924","11.8801651"
"IT05007","SmallStation","FIORENZUOLA","44.928715","9.9174231"
"IT05012","FreightTerminal","CASTELGUELFO","44.8364292","10.176718"
"IT05132","PassengerTerminal","MONZUNO-VADO","44.3222735","11.2620701"
"IT05003","Switch","DEV.S.RUFFILLO U/I","44.4513058","11.3652902"
"IT05050","FreightTerminal","BOLOGNA S.DONATO","44.5055796","11.3823374"
"IT05048","Junction","BIVIO VENEZIA","44.5119603","11.3157245"
"IT05002","Junction","PC PERSICETO NORD","44.6484048","11.185304"
"IT05021","SmallStation","S.ILARIO D'ENZA","44.7657974","10.4504823"
"IT05118","PassengerStop","S.MOMME'","44.0279996","10.9148152"
"IT05104","PassengerTerminal","SASSO MARCONI","44.3949768","11.2543846"
"IT05102","PassengerStop","CASTELDEBOLE","44.503399","11.2746418"
"IT01557","Junction","2^BIVIO PIACENZA EST","45.0343984","9.7573096"
"IT05071","Station","RIMINI","44.0641742","12.5740996"
"IT05046","Station","BOLOGNA C.LE/AV","44.5069541","11.3437365"
"IT05818","PassengerTerminal","IGEA MARINA","44.1319725","12.4816377"
"IT05005","PassengerTerminal","PONTENURE","45.0016824","9.7921152"
"IT02344","PassengerTerminal","GONZAGA-REGGIOLO","44.9392389","10.8155568"
"IT05954","PassengerStop","S.AGATA SUL SANTERNO","44.4367752","11.8588534"
"IT05014","Station","PARMA","44.8102043","10.3283858"
"IT05013","FreightTerminal","VILLA SELVA","44.2031215","12.1064877"
"IT05107","PassengerTerminal","VERGATO","44.2827243","11.1143768"
"IT02351","Junction","SOLIERA MODENESE","44.72267","10.9060196"
"IT05255","Junction","PC RUBIERA","44.6905354","10.7800915"
"IT05723","PassengerTerminal","S.GIORGIO DI PIANO","44.6466416","11.3790154"
"IT01854","DomesticBorderPoint","2^ BIVIO/PC PARMA EST","44.8207459","10.3748905"
"IT05072","Junction","DOPPIO BIVIO/PC BEVERARA","44.5274683","11.3337701"
"IT05808","PassengerTerminal","ALFONSINE","44.5123591","12.0391543"
"IT05250","Junction","PC PIACENZA","44.9937995","9.8324646"
"IT05076","Junction","BIVIO S.VITALE","44.4903844","11.3877078"
"IT05064","Junction","BIVIO TREBBO (DIR.LAV./CC.)","44.5408969","11.3340769"
"IT01552","Junction","PM LIVRAGA","45.1846871","9.5737296"
"IT05101","PassengerStop","CASALECCHIO DI RENO","44.4742951","11.2760894"
"IT05956","PassengerStop","COTIGNOLA","44.3870747","11.9380343"
"IT05724","PassengerTerminal","CASTELMAGGIORE","44.5768092","11.3673385"
"IT05065","PassengerStop","FORLIMPOPOLI-BERTINORO","44.1941641","12.1281325"
"IT05075","Junction","DOPPIO BIVIO RIMESSE","44.4993406","11.3751349"
"IT05955","PassengerTerminal","GRANAROLO FAENTINO","44.3573578","11.9374405"
"IT05813","PassengerTerminal","LIDO DI CLASSE-LIDO DI SAVIO","44.3145432","12.2927231"
"IT05952","PassengerTerminal","MASSALOMBARDA","44.4489433","11.8280598"
"IT05011","PassengerStop","VAIO OSPEDALE","44.8496854","10.0379086"
"IT05311","PassengerStop","MIRANDOLA","44.8916385","11.1117064"
"IT05108","PassengerTerminal","RIOLA","44.2298512","11.0535875"
"IT05090","PassengerStop","SALSOMAGGIORE TERME","44.8186551","9.9881531"
"IT05031","SmallStation","RUBIERA","44.6561851","10.7802647"
"IT05023","DomesticBorderPoint","REGGIO EMILIA","44.6977905","10.643101"
"IT05032","DomesticBorderPoint","MODENA","44.6544582","10.9303852"
"IT05109","PassengerStop","SILLA","44.1776539","10.9806341"
"IT02340","DomesticBorderPoint","SUZZARA","44.9944326","10.7561599"
"IT05010","PassengerStop","CALDERARA-BARGELLINO","44.5440763","11.2674459"
"IT05111","DomesticBorderPoint","CASALECCHIO GARIBALDI","44.4832177","11.2730463"
"IT05726","PassengerStop","FUNO CENTERGROSS","44.5935301","11.3708282"
"IT05811","Station","RAVENNA","44.4191465","12.2084032"
"IT05119","PassengerStop","BIAGIONI LAGACCI","44.0863597","10.948271"
"IT01556","Junction","PM PIACENZA OVEST","45.0848876","9.7175146"
"IT05063","Junction","BIVIO BERTALIA","44.5390817","11.3183349"
"IT05061","Junction","BIVIO TAVERNELLE","44.5534427","11.260082"
"IT05814","PassengerTerminal","CERVIA-MILANO MARITTIMA","44.2584367","12.3471049"
"IT05725","PassengerStop","BOLOGNA CORTICELLA","44.5519821","11.3540018"
"IT05950","PassengerTerminal","CONSELICE","44.5109869","11.8319459"
"IT05066","Station","CESENA","44.1454446","12.2496525"
"IT05049","PassengerStop","S.LAZZARO DI SAVENA","44.4792195","11.4155252"
"IT05130","PassengerTerminal","BOLOGNA S.RUFFILLO","44.4626517","11.3729566"
"IT05067","PassengerStop","GAMBETTOLA","44.116715","12.3275716"
"IT05719","PassengerStop","CORONELLA","44.7960763","11.5444917"
"IT05273","Junction","PM IDICE","44.228027","11.361124"
"IT05139","PassengerStop","MUSIANO-PIAN DI MACINA","44.4006681","11.3437851"
"IT05951","SmallStation","LUGO","44.4141016","11.9147233"
"IT05103","PassengerStop","PONTECCHIO MARCONI","44.4229395","11.2691857"
"IT05711","PassengerStop","PONTELAGOSCURO","44.8732095","11.612535"
"IT05308","DomesticBorderPoint","POGGIO RUSCO","44.9818556","11.1246409"
"IT05009","Station","FIDENZA","44.8677277","10.0634085"
"IT02346","PassengerTerminal","ROLO NOVI FABBRICO","44.8865624","10.8679022"
"IT05140","PassengerStop","BOLOGNA MAZZINI","44.4825659","11.3762126"
"IT05069","PassengerTerminal","SANTARCANGELO DI ROMAGNA","44.0703167","12.4545484"
"IT05267","Junction","QUATTRO VILLE ZONA INDUSTRIALE","44.6848327","10.9457203"
"IT05256","Junction","BIVIO MODENA OVEST","44.6878164","10.8764206"
"IT05025","Junction","PM FRETO","44.6695544","10.8927545"
"IT05264","Switch","DEV. INT. CASTELFRANCO E.","44.5846995","11.0949326"
"IT05321","Junction","PM S.VIOLA","44.5175604","11.2936484"
"IT01559","Junction","2^ BIVIO/PP FIDENZA OVEST","44.8941252","10.0439296"
"IT05073","Junction","BIVIO ARCOVEGGIO","44.5215949","11.3518912"
"IT05020","PassengerTerminal","BOLOGNA FIERE","44.5122151","11.3694136"
"IT05253","Junction","PM CAMPEGINE","44.7561567","10.546131"
"IT05904","PassengerStop","GODO","44.3893198","12.0712518"
"IT05275","Junction","PM S.PIERO A SIEVE","43.9458605","11.3164452"
"IT05316","PassengerTerminal","CREVALCORE","44.7191565","11.1526286"
"IT05810","PassengerTerminal","MEZZANO","44.4629969","12.0985036"
"IT05801","PassengerTerminal","MONTESANTO","44.7329605","11.7365305"
"IT02343","PassengerStop","PALIDANO","44.9722278","10.7774252"
"IT05137","Junction","PC PRECEDENZE","44.1323481","11.1721035"
"IT05131","PassengerTerminal","PIANORO","44.3805834","11.3406651"
"IT05259","Junction","PM ANZOLA","44.5545649","11.1864893"
"IT05313","PassengerTerminal","S.FELICE SUL PANARO","44.834523","11.1402552"
"IT05110","PassengerTerminal","PORRETTA  TERME","44.1557566","10.9780424"
"IT05117","PassengerStop","VALDIBRANA","43.9654345","10.9100096"
"IT05136","PassengerTerminal","VAIANO","43.9617653","11.1307883"
"IT05135","PassengerTerminal","VERNIO MONTEPIANO CANTAGALLO","44.0439853","11.1523477"
"IT05804","PassengerTerminal","ARGENTA","44.6168663","11.8412765"
"IT05262","FreightTerminal","QUATTRO VILLE SUD","44.6782267","10.9124149"
"IT05817","PassengerTerminal","BELLARIA","44.1502423","12.4611674"
"IT05000","Station","PIACENZA","45.0522367","9.7063465"
"IT02349","Station","CARPI","44.7829198","10.8919656"
"IT05024","FreightTerminal","MARZAGLIA","44.6507158","10.833253"
"IT05115","PassengerTerminal","CORBEZZI","43.9939506","10.9196883"
"IT05037","PassengerTerminal","CASTELFRANCO EMILIA","44.5973808","11.0564088"
"IT05105","PassengerTerminal","MARZABOTTO","44.3414954","11.2073317"
"IT05272","Junction","BIVIO EMILIA","44.3912956","11.3506397"
"IT05298","Junction","PM/PDE S.PELLEGRINO","44.097425","11.4303218"
"IT05054","Station","IMOLA","44.3594159","11.7187178"
"IT05712","DomesticBorderPoint","FERRARA","44.8430425","11.6036094"
"IT05051","Station","PM MIRANDOLA OZZANO","44.4599692","11.4641646"
"IT05710","PassengerTerminal","OCCHIOBELLO","44.9014359","11.6239366"
"IT05820","PassengerTerminal","RIMINI VISERBA","44.0884059","12.5337885"
"IT05151","PassengerStop","PISTOIA OVEST","43.936523","10.9040168"
"IT05116","Station","PITECCIO","44.0097868","10.9013156"
"IT05805","PassengerStop","S.BIAGIO","44.5945096","11.8705439"
"IT05900","PassengerTerminal","SOLAROLO","44.3564221","11.8491858"
"IT05319","PassengerStop","S.GIOVANNI IN PERSICETO","44.64315","11.189448"
"IT05134","PassengerTerminal","S.BENEDETTO SAMBRO-CASTIGLIONE PEPOLI","44.2161984","11.1893572"
"IT05052","PassengerStop","VARIGNANA","44.4367925","11.5230681"
"IT02345","PassengerStop","VILLANOVA DI REGGIOLO","44.9159583","10.8424199"
"IT05268","PassengerStop","QUATTRO VILLE","44.6908179","10.9119708"
"IT05001","Junction","BOLOGNA FASCIO RAVONE","44.5097401","11.3197134"
"IT05138","PassengerStop","RASTIGNANO","44.4434771","11.3576096"
"IT05902","PassengerTerminal","BAGNACAVALLO","44.4121394","11.9693978"
"IT05260","Junction","1^BIVIO PARMA EST","44.8158482","10.4098763"
"IT05152","PassengerStop","BORGONUOVO","44.4432607","11.2749634"
"IT05057","PassengerStop","RIMINIFIERA","44.0706804","12.5256968"
"IT05100","PassengerStop","BOLOGNA BORGO PANIGALE","44.5150251","11.2847262"
"IT05314","PassengerStop","CAMPOSANTO","44.7877039","11.1435963"
"IT05815","PassengerTerminal","CESENATICO","44.2006483","12.3911949"
"IT05812","PassengerTerminal","CLASSE","44.3820253","12.23499"
"IT05053","PassengerTerminal","CASTEL S.PIETRO TERME","44.407368","11.5976703"
"IT05713","DomesticBorderPoint","BIVIO RIVANA","44.825374","11.6045635"
"IT05121","PassengerStop","LAMA DI RENO","44.3634575","11.2160594"
"IT05720","PassengerTerminal","POGGIO RENATICO","44.7672914","11.4837183"
"IT05047","Junction","PM RENO","44.5150038","11.3035911"
"IT05819","PassengerStop","RIMINI TORRE PEDRERA","44.1070256","12.5087167"
"IT05113","PassengerTerminal","PRACCHIA","44.0547857","10.9069171"
"IT05903","SmallStation","RUSSI","44.3790066","12.0316365"
"IT05722","PassengerTerminal","S.PIETRO IN CASALE","44.6979277","11.4047748"
"IT05068","PassengerStop","SAVIGNANO SUL RUBICONE","44.0951906","12.404215"
"IT05807","PassengerTerminal","VOLTANA","44.5403658","11.9360518"
"IT05258","Junction","BIVIO CASTELFRANCO EST","44.5749473","11.1251184"
"IT05322","Station","PM TAVERNELLE EMILIA","44.5754015","11.243918"
"IT05082","Junction","BIVIO NAVILE","44.5403654","11.344001"
"IT05055","PassengerStop","OZZANO DELL'EMILIA","44.4508395","11.4873723"
"IT05078","Junction","BIVIO BATTIFERRO","44.5257444","11.3284137"
"IT05120","PassengerStop","CARBONA","44.2468718","11.0961731"
"IT01553","Junction","BIVIO PIACENZA OVEST","45.1150193","9.7025265"
"IT05386","PassengerStop","ANZOLA DELL'EMILIA","44.5512388","11.1957175"
"IT05059","Station","FORLI'","44.22413","12.0548752"
"IT05800","PassengerTerminal","GAIBANELLA","44.7781083","11.6713428"
"IT05816","PassengerStop","GATTEO A MARE","44.1706829","12.4320661"
"IT05809","PassengerStop","GLORIE","44.4833322","12.0757378"
"IT05721","PassengerStop","GALLIERA","44.7377376","11.4415579"
"IT05112","PassengerStop","MOLINO DEL PALLONE","44.1001298","10.9612609"
"IT05106","PassengerTerminal","PIOPPE DI SALVARO","44.3107559","11.1617734"
"IT05058","Station","FAENZA","44.2935922","11.8832667"
"IT05123","PassengerStop","PONTE DELLA VENTURINA","44.1285867","10.9907553"
"IT05133","PassengerTerminal","GRIZZANA","44.2582924","11.1811872"
"IT05041","Station","PM LAVINO","44.5382997","11.2327988"
"IT05953","PassengerStop","S.PATRIZIO","44.4902412","11.8259307"
"IT05802","DomesticBorderPoint","PORTOMAGGIORE","44.6967005","11.7997966"
"IT05114","PassengerStop","PIAN DI VENOLA","44.3330558","11.1900533"
"IT05039","PassengerStop","SAMOGGIA","44.5673081","11.1462196"
"IT05254","Station","REGGIO EMILIA AV MEDIOPADANA","44.724366","10.6548873"
"IT05252","Junction","PC FONTANELLATO","44.8830608","10.1340454"
"IT01554","Junction","1^BIVIO PIACENZA EST","45.0118277","9.7911349"
"IT05251","Junction","1 BIVIO FIDENZA OVEST","44.915433","10.010441"
"IT12800","Switch","DEV.CHILIVANI LATO MACOMER","40.6014172","8.9156196"
"IT12854","PassengerStop","MARINELLA","40.9991327","9.5536059"
"IT12852","PassengerTerminal","GOLFO ARANCI","40.9947131","9.6276728"
"IT12973","Junction","MONTE ARCAU","39.244495","8.543334"
"IT12805","Junction","S.GIORGIO DI SASSARI","40.7557701","8.5147871"
"IT12860","PassengerTerminal","OSCHIRI","40.7132726","9.1077432"
"IT12885","PassengerTerminal","SAMASSI SERRENTI","39.4830758","8.8990279"
"IT12864","Junction","MORES ITTIREDDU","40.5559551","8.8758331"
"IT12850","Junction","GOLFO ARANCI MARITTIMA","40.995772","9.6238281"
"IT12956","PassengerStop","VILLASPECIOSA UTA","39.3041649","8.9404882"
"IT12873","PassengerTerminal","ABBASANTA","40.1268644","8.8161136"
"IT12816","SmallStation","PLOAGHE","40.6613233","8.728064"
"IT12862","Station","OZIERI CHILIVANI","40.6095029","8.9337385"
"IT12875","Junction","BAULADU MILIS","40.0207289","8.6871207"
"IT12819","PassengerStop","ELMAS AEROPORTO","39.2572254","9.0627665"
"IT12802","PassengerTerminal","PORTO TORRES","40.8330521","8.3964129"
"IT12883","PassengerTerminal","SANLURI STATO","39.526143","8.8502106"
"IT12851","PassengerStop","CALA SABINA","41.0110157","9.5880894"
"IT12950","SmallStation","IGLESIAS","39.3105637","8.5397879"
"IT12972","PassengerTerminal","CARBONIA STATO","39.1695048","8.5091657"
"IT12874","PassengerTerminal","PAULILATINO","40.0773776","8.7757968"
"IT12954","PassengerTerminal","SILIQUA","39.2970011","8.813064"
"IT12809","PassengerStop","ASSEMINI CARMINE","39.2817951","9.0137256"
"IT12970","PassengerStop","CIXERRI","39.2698209","8.5789317"
"IT12896","PassengerStop","SU CANALE","40.8381017","9.4039701"
"IT12817","SmallStation","ARDARA","40.6321439","8.818982"
"IT12818","PassengerStop","CARBONIA SERBARIU","39.1644378","8.5127011"
"IT12855","PassengerTerminal","OLBIA","40.9245952","9.4982867"
"IT12890","PassengerTerminal","CAGLIARI ELMAS","39.2641969","9.0454818"
"IT12861","Junction","OZIERI FRAIGAS","40.6273361","8.9864883"
"IT12859","PassengerTerminal","BERCHIDDA","40.7720506","9.1813017"
"IT12902","Junction","OLBIA TERRANOVA","40.9219658","9.4939032"
"IT12872","PassengerTerminal","BORORE","40.2190002","8.8095196"
"IT12803","PassengerStop","PORTO TORRES MARITTIMA","40.8379109","8.3973102"
"IT12813","Junction","TISSI USINI","40.6892884","8.5302551"
"IT12876","PassengerTerminal","SOLARUSSA","39.9525273","8.6798075"
"IT12865","Junction","TORRALBA","40.4827747","8.7816076"
"IT12880","PassengerTerminal","URAS MOGORO","39.6926358","8.6964477"
"IT12807","Station","SASSARI","40.7295168","8.5541497"
"IT12889","PassengerStop","ASSEMINI","39.2876056","8.9979164"
"IT12866","PassengerStop","GIAVE","40.4558781","8.729374"
"IT12897","Junction","S.ANNA","39.8107697","8.6414416"
"IT12867","PassengerTerminal","BONORVA","40.4177661","8.7606989"
"IT12878","Station","ORISTANO","39.9020419","8.6039719"
"IT12869","Station","MACOMER","40.2679075","8.7722632"
"IT12888","PassengerTerminal","DECIMOMANNU","39.3045922","8.9657913"
"IT12891","Station","CAGLIARI","39.2160831","9.107969"
"IT12856","Station","ENAS","40.8570581","9.4310795"
"IT12879","PassengerTerminal","MARRUBIU-TERRALBA-ARBOREA","39.7529364","8.6411336"
"IT12881","PassengerTerminal","PABILLONIS","39.6108796","8.7410026"
"IT12857","PassengerTerminal","MONTI TELTI","40.8296321","9.3228033"
"IT12804","Junction","S.GIOVANNI","40.7625261","8.4992752"
"IT12895","PassengerStop","RUDALZA","40.9940846","9.5312112"
"IT12810","PassengerStop","CAGLIARI S.GILLA","39.2264337","9.0974991"
"IT12815","Junction","CAMPOMELA","40.6813935","8.6388644"
"IT12868","Junction","CAMPEDA","40.3285804","8.7836274"
"IT12808","PassengerStop","ASSEMINI S.LUCIA","39.2910305","8.9892866"
"IT12952","PassengerTerminal","VILLAMASSARGIA DOMUSNOVAS","39.2948063","8.641977"
"IT12882","Station","S.GAVINO","39.5577989","8.8007893"
"IT12801","Switch","DEV.CHILIVANI LATO PORTO TORRES","40.6117217","8.9109949"
"IT12853","Junction","MADONNA DI CASTRO","40.6720216","9.0460096"
"IT12814","SmallStation","SCALA DI GIOCCA","40.6988855","8.5969414"
"IT12886","PassengerTerminal","SERRAMANNA NURAMINIS","39.4261228","8.9165659"
"IT12887","PassengerTerminal","VILLASOR","39.3814478","8.9358912"
"IT08121","Junction","1^BIVIO ORVIETO NORD","42.7581851","12.0602047"
"IT08122","Junction","2^BIVIO ORVIETO NORD","42.7508784","12.0720215"
"IT06308","PassengerTerminal","BAGNI DI LUCCA","44.0034495","10.5516395"
"IT08206","PassengerStop","ALVIANO","42.5919145","12.2595851"
"IT06100","PassengerStop","BORGHETTO PARMENSE","44.837197","10.1177175"
"IT06028","PassengerTerminal","BOLGHERI","43.2446631","10.5505438"
"IT06018","Junction","COLLESALVETTI","43.5865859","10.4705389"
"IT06002","FreightTerminal","LA SPEZIA MARITTIMA","44.1105446","9.8522651"
"IT06911","PassengerStop","BUCINE","43.4804813","11.617616"
"IT06055","Switch","DEV. INGRESSO CAMPIGLIA","43.0169439","10.573207"
"IT06103","PassengerStop","FELEGARA-S.ANDREA BAGNI","44.7248042","10.1145318"
"IT06306","PassengerStop","GHIVIZZANO-COREGLIA","44.0275817","10.5101979"
"IT06350","PassengerTerminal","MASSAROSA BOZZANO","43.858718","10.3466193"
"IT06510","Station","EMPOLI","43.7157052","10.9491646"
"IT06908","Station","FIGLINE VALDARNO","43.6221423","11.4731515"
"IT06925","PassengerTerminal","CHIUSI-CHIANCIANO TERME","43.0024648","11.9578923"
"IT06038","PassengerTerminal","MONTEPESCALI","42.8695163","11.068752"
"IT06924","Junction","PM PANICALE S.FATUCCHIO","43.0655342","12.0563451"
"IT06612","PassengerStop","POPOLANO DI MARRADI","44.095454","11.6380444"
"IT06750","PassengerStop","RIPARBELLA","43.3394634","10.5821927"
"IT06422","PassengerStop","PRATO PORTA AL SERRAGLIO","43.8846308","11.0974003"
"IT06400","PassengerTerminal","S.GIULIANO TERME","43.764895","10.4369063"
"IT06613","PassengerStop","S.MARTINO IN GATTARA","44.1132103","11.6670828"
"IT06035","SmallStation","SCARLINO","42.9420041","10.8368124"
"IT06030","SmallStation","S.VINCENZO","43.1004418","10.5398191"
"IT06817","PassengerStop","TORRENIERI","43.0866068","11.5523917"
"IT06824","PassengerStop","STICCIANO","42.9293303","11.1186298"
"IT06903","PassengerStop","SIECI","43.790889","11.3946168"
"IT06722","Switch","DEV. ESTR. LIVORNO CALAMBRONE","43.5913154","10.3304313"
"IT06322","PassengerStop","VILLETTA S.ROMANO","44.1467593","10.3675709"
"IT06953","PassengerTerminal","FIESOLE CALDINE","43.8305993","11.3081397"
"IT06431","Switch","DEV. ESTR. FIRENZE STATUTO","43.7879065","11.2538817"
"IT06659","PassengerTerminal","CAMPOMIGLIAIO","43.9371246","11.3033263"
"IT06958","Junction","PM IL CIONFO","43.794629","11.269542"
"IT06040","Station","VIAREGGIO","43.8739028","10.2528778"
"IT06051","Junction","2^BIVIO AREZZO NORD","43.4689041","11.820069"
"IT06052","Junction","2^BIVIO VALDARNO SUD","43.5093338","11.5940996"
"IT08205","Junction","PC CASTIGLIONE IN TEVERINA","42.6485449","12.2349142"
"IT06702","PassengerTerminal","CONTEA LONDA","43.8651153","11.5316086"
"IT06158","PassengerTerminal","BERCETO","44.5559057","9.9317574"
"IT06935","Switch","DEV. ESTR. DD PM ROVEZZANO","43.7689649","11.3246909"
"IT06044","PassengerStop","CA` DI BOSCHETTI","44.1181416","9.8634986"
"IT06701","PassengerTerminal","DICOMANO","43.8934893","11.5191589"
"IT06310","SmallStation","DIECIMO-PESCAGLIA","43.9594002","10.5078504"
"IT06011","PassengerTerminal","FORTE DEI MARMI-SERAVEZZA-QUERCETA","43.977738","10.1994538"
"IT06037","Junction","GIUNCARICO","42.9154719","11.0083702"
"IT06430","PassengerTerminal","FIRENZE STATUTO","43.7872722","11.2497452"
"IT06424","PassengerStop","IL NETO","43.8396252","11.1826726"
"IT06426","PassengerStop","PRATO BORGONUOVO","43.8914701","11.0751179"
"IT06001","PassengerStop","LASTRA A SIGNA","43.7695157","11.1025338"
"IT06057","Switch","DEV. TAGLIAFERRO PISA CENTRALE","43.7008664","10.3910262"
"IT06039","Station","GROSSETO","42.7672844","11.1065118"
"IT06610","PassengerTerminal","MARRADI-PALAZZUOLO SUL SENIO","44.0797226","11.6191846"
"IT06415","PassengerStop","MONTALE AGLIANA","43.9129195","11.0083203"
"IT06042","FreightTerminal","MASSA ZONA INDUSTRIALE","44.0344403","10.1005298"
"IT06403","Junction","BIVIO MONTUOLO","43.8317222","10.428331"
"IT06351","PassengerStop","NOZZANO","43.8299524","10.4071699"
"IT06856","Junction","PM MONTALLESE","43.0648906","11.9092823"
"IT06004","SmallStation","LA SPEZIA MIGLIARINA","44.1233861","9.840279"
"IT06775","PassengerStop","PIOMBINO MARITTIMA","42.928932","10.5452467"
"IT06409","PassengerTerminal","PESCIA","43.8868099","10.6860935"
"IT06752","PassengerStop","PONTE GINORI","43.3351638","10.7420914"
"IT06772","PassengerStop","PIOMBINO BINARI PORTO VECCHIO","42.9316391","10.5398979"
"IT06823","PassengerTerminal","ROCCASTRADA","42.9576263","11.1929452"
"IT06773","PassengerStop","POPULONIA","42.9964066","10.540657"
"IT06509","PassengerStop","S.MINIATO FUCECCHIO","43.701379","10.8316165"
"IT06867","PassengerTerminal","SIENA ZONA INDUSTRIALE","43.2652767","11.3766509"
"IT06414","Station","PISTOIA","43.9268016","10.9146422"
"IT06032","PassengerStop","VIGNALE RIOTORTO","42.967581","10.6672576"
"IT06950","PassengerStop","S.MARCO VECCHIO","43.790329","11.267409"
"IT06957","PassengerStop","LE CURE","43.7861819","11.268518"
"IT06602","PassengerTerminal","VAGLIA","43.9063286","11.2832808"
"IT06050","Junction","1^BIVIO AREZZO NORD","43.4759985","11.794285"
"IT06407","PassengerTerminal","ALTOPASCIO","43.8174183","10.6727695"
"IT06806","PassengerStop","BARBERINO DI VAL D'ELSA","43.4993156","11.1111099"
"IT06727","PassengerStop","ANTIGNANO","43.4956245","10.3292358"
"IT06600","Station","PM FIRENZE OSMANNORO","43.800322","11.1757178"
"IT06614","PassengerTerminal","BRISIGHELLA","44.2205619","11.7697604"
"IT06170","SmallStation","S.STEFANO DI MAGRA","44.1566718","9.9152433"
"IT06324","PassengerStop","CAMPORGIANO","44.1614433","10.3348422"
"IT08006","PassengerTerminal","CAPALBIO","42.4079801","11.3709728"
"IT06505","PassengerTerminal","CASCINA","43.674538","10.5452398"
"IT06915","DomesticBorderPoint","AREZZO","43.4617257","11.8741947"
"IT06802","PassengerStop","CASTELFIORENTINO","43.6054233","10.9680572"
"IT06013","PassengerTerminal","AULLA LUNIGIANA","44.2167401","9.9776064"
"IT06151","PassengerTerminal","COLLECCHIO","44.7553344","10.2122885"
"IT08200","Junction","PM CITTA` DELLA PIEVE","42.9362233","11.971129"
"IT06026","PassengerTerminal","CECINA","43.3102792","10.5142263"
"IT06222","PassengerStop","FIVIZZANO ROMETTA-SOLIERA","44.201524","10.0595369"
"IT06618","PassengerStop","FOGNANO","44.2033361","11.7276766"
"IT06036","PassengerTerminal","GAVORRANO","42.9479609","10.9338099"
"IT06774","FreightTerminal","FIORENTINA DI PIOMBINO","42.970064","10.5423109"
"IT06910","Station","MONTEVARCHI TERRANUOVA","43.5251704","11.5639882"
"IT06225","PassengerStop","MONZONE-MONTE DEI BIANCHI-ISOLANO","44.1656283","10.123831"
"IT08240","Junction","PC CIVITELLA DI AGLIANO","42.6169206","12.2278142"
"IT06323","PassengerStop","POGGIO-CAREGGINE-VAGLI","44.1485354","10.3506298"
"IT06325","PassengerTerminal","PIAZZA AL SERCHIO","44.1825083","10.2966181"
"IT06506","Station","PONTEDERA CASCIANA TERME","43.6621421","10.6287876"
"IT06851","PassengerTerminal","RIGOMAGNO","43.256765","11.706493"
"IT06159","PassengerStop","ROCCAMURATA","44.5327544","9.8761851"
"IT06854","PassengerStop","TORRITA DI SIENA","43.1741894","11.7875783"
"IT06150","PassengerTerminal","VICOFERTILE","44.7784377","10.2583498"
"IT06721","FreightTerminal","LIVORNO CALAMBRONE","43.5844127","10.3267092"
"IT06725","Station","LIVORNO CENTRALE","43.5537053","10.3365191"
"IT06939","Switch","DEV. INTERCONNESSIONE LL/DD FIGLINE","43.618348","11.476839"
"IT06922","PassengerTerminal","TERONTOLA CORTONA","43.2102649","12.0079079"
"IT06500","Station","PISA CENTRALE","43.7079383","10.3981948"
"IT06049","Junction","1^BIVIO AREZZO SUD","43.3889467","11.8436294"
"IT06811","PassengerTerminal","ARBIA","43.2943907","11.4062285"
"IT06931","Junction","1^BIVIO CHIUSI NORD","43.0826341","11.8980809"
"IT08001","Junction","ALBERESE","42.6395939","11.1344289"
"IT06901","PassengerStop","FIRENZE ROVEZZANO","43.768701","11.3077629"
"IT06825","PassengerStop","ASCIANO MONTE OLIVETO MAGGIORE","43.2317023","11.56363"
"IT06008","Junction","BIVIO/PC ARCOLA","44.1274252","9.909286"
"IT06812","PassengerTerminal","CASTELNUOVO BERARDENGA","43.3068778","11.4849126"
"IT06302","PassengerStop","CASTELVECCHIO PASCOLI","44.090071","10.4550684"
"IT06607","PassengerTerminal","CRESPINO DEL LAMONE","44.0418103","11.5484462"
"IT06226","PassengerStop","EQUI TERME","44.1702803","10.1536284"
"IT06161","PassengerTerminal","BORGO VAL DI TARO","44.486513","9.781498"
"IT06165","PassengerTerminal","FILATTIERA","44.331363","9.9333544"
"IT06497","Junction","PISA  BINARI FM CAMPALDO","43.7297094","10.3816985"
"IT06304","PassengerTerminal","FORNACI DI BARGA","44.0452486","10.4731783"
"IT06818","PassengerStop","MONTE AMIATA","42.9763977","11.5461109"
"IT06009","Station","MASSA CENTRO","44.023737","10.1360374"
"IT06855","PassengerTerminal","MONTEPULCIANO","43.1353489","11.8568611"
"IT06871","PassengerTerminal","MONTERONI D'ARBIA","43.2300398","11.4196613"
"IT06876","PassengerStop","MURLO","43.1139829","11.4004001"
"IT06101","PassengerTerminal","NOCETO","44.8099338","10.1472761"
"IT06152","PassengerStop","OZZANO TARO","44.7122708","10.1410238"
"IT06917","Junction","PC S.DONATO","43.695433","11.4336217"
"IT06404","Station","LUCCA","43.8371828","10.5060872"
"IT06869","PassengerStop","PONTE A TRESSA","43.2508483","11.3961719"
"IT06906","PassengerTerminal","RIGNANO SULL'ARNO REGGELLO","43.7208379","11.4523903"
"IT08203","PassengerTerminal","ORVIETO","42.7233797","12.1274072"
"IT06819","PassengerStop","S.ANGELO CINIGIANO","42.9647688","11.4284827"
"IT06166","PassengerTerminal","VILLAFRANCA-BAGNONE","44.2943903","9.9481014"
"IT06723","FreightTerminal","PM LIVORNO DARSENA","43.569973","10.3019972"
"IT06603","PassengerTerminal","S.PIERO A SIEVE","43.9583498","11.3227357"
"IT06410","PassengerTerminal","BORGO A BUGGIANO","43.8807204","10.7301009"
"IT06704","PassengerStop","BORGO S.LORENZO RIMORELLI","43.9532728","11.4000823"
"IT06056","Junction","BIVIO MORTELLINI","43.6612205","10.3694821"
"IT06874","PassengerTerminal","BUONCONVENTO","43.1354995","11.4837698"
"IT06019","Junction","PM ORCIANO","43.4999856","10.4777596"
"IT06921","PassengerTerminal","CAMUCIA CORTONA","43.2611042","11.9712475"
"IT06822","PassengerStop","CIVITELLA PAGANICO","42.9402827","11.2835428"
"IT06029","PassengerStop","CASTAGNETO CARDUCCI-DONORATICO","43.1687437","10.5637719"
"IT06729","PassengerStop","CASTIGLIONCELLO","43.4046169","10.4143562"
"IT06031","PassengerTerminal","CAMPIGLIA MARITTIMA","43.0171109","10.5865528"
"IT06936","Switch","DEV. ESTR. LL PM ROVEZZANO","43.7694913","11.326694"
"IT06902","PassengerTerminal","COMPIOBBI","43.7825225","11.3587058"
"IT06059","Switch","DEV. LINEA PIOMBINO","43.0231524","10.5767508"
"IT06515","Junction","PM FIRENZE CASCINE","43.7921143","11.1979924"
"IT06912","PassengerTerminal","LATERINA","43.4964562","11.6605817"
"IT06801","PassengerTerminal","GRANAIOLO","43.6522469","10.9452321"
"IT06003","PassengerStop","LUNI","44.0747618","10.0157993"
"IT06900","Station","FIRENZE CAMPO MARTE","43.7777479","11.2762909"
"IT06499","Switch","DEV. ESTR. PISA S.R.","43.7264136","10.3913948"
"IT06153","PassengerTerminal","FORNOVO","44.6937919","10.1020259"
"IT06227","SmallStation","MINUCCIANO-PIEVE-CASOLA","44.1943793","10.193839"
"IT06411","PassengerTerminal","MONTECATINI TERME-MONSUMMANO","43.8793274","10.7806044"
"IT06501","PassengerStop","PISA/BINARI PISA S.ROSSORE","43.7232955","10.3881054"
"IT06807","PassengerTerminal","PONTE A ELSA","43.6943883","10.9060146"
"IT06770","SmallStation","PIOMBINO","42.9248496","10.5309584"
"IT06805","PassengerTerminal","POGGIBONSI-S.GIMIGNANO","43.4680921","11.1494568"
"IT06312","PassengerStop","PONTE A MORIANO","43.9083678","10.5342755"
"IT06913","PassengerTerminal","PONTICINO","43.4814454","11.7165787"
"IT06816","PassengerStop","S.GIOVANNI D'ASSO","43.1532916","11.5938107"
"IT06163","PassengerTerminal","PONTREMOLI","44.3712462","9.887713"
"IT06514","PassengerStop","S.DONNINO BADIA","43.7854221","11.1421839"
"IT06905","PassengerStop","S.ELLERO","43.7421398","11.4696316"
"IT06516","PassengerStop","LE PIAGGE","43.789796","11.1741698"
"IT06015","PassengerTerminal","TORRE DEL LAGO PUCCINI","43.8264027","10.2903821"
"IT06753","PassengerStop","VOLTERRA SALINE-POMARANCE","43.3596197","10.8082674"
"IT06720","Junction","TOMBOLO","43.6317338","10.3529197"
"IT06952","PassengerStop","PIAN DEL MUGNONE","43.817613","11.2951847"
"IT06016","Junction","PC CITERNA TARO","44.636842","10.0352776"
"IT08120","Junction","1^BIVIO CHIUSI SUD","42.918023","11.9807827"
"IT08124","Junction","1^BIVIO ORVIETO SUD","42.701818","12.1612423"
"IT06826","PassengerTerminal","BADESSE","43.3856555","11.2730644"
"IT06054","Junction","1^BIVIO VALDARNO NORD","43.649746","11.4627703"
"IT06813","PassengerTerminal","ASCIANO","43.2352425","11.5792467"
"IT06000","Station","LA SPEZIA CENTRALE","44.1114013","9.8139052"
"IT06010","Junction","PP CHIESACCIA","44.2513298","9.957897"
"IT06043","PassengerStop","CAMAIORE LIDO CAPEZZANO","43.9121722","10.247656"
"IT06808","SmallStation","CASTELLINA IN CHIANTI-MONTERIGGIONI","43.4087481","11.2123801"
"IT06033","PassengerTerminal","FOLLONICA","42.9266838","10.7557892"
"IT06301","PassengerStop","FOSCIANDORA-CESERANA","44.1185601","10.4442202"
"IT06498","Switch","DEV. LUCCA-SPEZIA","43.719486","10.3873699"
"IT06058","Switch","DEV. NAVICELLI PISA CENTRALE","43.710433","10.3900297"
"IT06162","Junction","PM GRONDOLA-GUINADI","44.4236476","9.8433326"
"IT06102","PassengerTerminal","MEDESANO","44.749265","10.1403523"
"IT06408","PassengerTerminal","MONTECARLO S.SALVATORE","43.8507931","10.6853858"
"IT06820","PassengerTerminal","MONTE ANTICO","42.981052","11.359818"
"IT06420","Station","FIRENZE RIFREDI","43.8008706","11.2357403"
"IT06926","Junction","PM OLMO","43.4211613","11.8411844"
"IT06850","PassengerTerminal","RAPOLANO TERME","43.2833294","11.6025078"
"IT08004","PassengerTerminal","ORBETELLO-MONTE ARGENTARIO","42.4506206","11.2489713"
"IT06606","PassengerTerminal","RONTA","44.0094309","11.4341301"
"IT06705","PassengerStop","SCOPETI","43.8411138","11.4970081"
"IT06413","PassengerTerminal","SERRAVALLE PISTOIESE","43.9080129","10.8516967"
"IT06504","PassengerStop","S.FREDIANO A SETTIMO","43.680505","10.5172638"
"IT06313","PassengerTerminal","S.PIETRO A VICO","43.8750884","10.5309536"
"IT06730","SmallStation","ROSIGNANO","43.3879026","10.4380396"
"IT06425","PassengerStop","ZAMBRA","43.825849","11.2062147"
"IT06014","Junction","PP OSTERIAZZA","44.6756565","10.083851"
"IT06928","Junction","PM ROVEZZANO","43.769246","11.3152949"
"IT06045","Junction","2^BIVIO AREZZO SUD","43.4020302","11.8406787"
"IT08123","Junction","2^BIVIO ORVIETO SUD","42.7139197","12.1467798"
"IT06053","Junction","1^BIVIO VALDARNO SUD","43.5303248","11.6322901"
"IT06923","PassengerTerminal","CASTIGLION DEL LAGO","43.1232008","12.0320785"
"IT08202","PassengerTerminal","ALLERONA-CASTEL VISCARDO","42.7849968","12.0352771"
"IT06224","PassengerTerminal","GRAGNOLA","44.1910682","10.1092472"
"IT06412","PassengerStop","MONTECATINI CENTRO","43.8812122","10.7708224"
"IT06907","PassengerTerminal","INCISA","43.6559017","11.4526027"
"IT06502","PassengerTerminal","NAVACCHIO","43.6859399","10.486815"
"IT06220","PassengerStop","PALLERONE","44.2042237","10.0051738"
"IT06927","Junction","PC RIGUTINO","43.342099","11.8652504"
"IT06423","PassengerStop","PRATIGNONE","43.8492732","11.1620145"
"IT06406","SmallStation","PORCARI","43.8312646","10.6192322"
"IT06419","PassengerTerminal","FIRENZE CASTELLO","43.8194426","11.2183887"
"IT06401","PassengerTerminal","RIGOLI","43.7896844","10.4196729"
"IT06402","PassengerStop","RIPAFRATTA","43.8217064","10.4157527"
"IT06703","PassengerTerminal","RUFINA","43.8222313","11.4850802"
"IT06421","Station","FIRENZE SANTA MARIA NOVELLA","43.7768901","11.2473885"
"IT06615","PassengerTerminal","S.CASSIANO","44.1436818","11.6875124"
"IT06416","Station","PRATO CENTRALE","43.878735","11.1092575"
"IT06164","PassengerStop","SCORCETOLI","44.3443038","9.9118647"
"IT06007","PassengerTerminal","SARZANA","44.1088614","9.9606582"
"IT06821","PassengerStop","TREQUANDA","43.1938013","11.6030615"
"IT08002","PassengerStop","TALAMONE","42.5646163","11.1645278"
"IT06405","SmallStation","TASSIGNANO-CAPANNORI","43.8341318","10.5705084"
"IT06418","PassengerStop","SESTO FIORENTINO","43.8332977","11.1919519"
"IT06909","Station","S.GIOVANNI VALDARNO","43.5660116","11.5270321"
"IT06062","Switch","DEV. ESTR. FIRENZE CAMPO MARTE","43.7880914","11.2625444"
"IT06020","Switch","DEV. ESTR. S.STEFANO","44.1669143","9.9289955"
"IT06809","Station","SIENA","43.3317148","11.3229746"
"IT06025","PassengerTerminal","VADA","43.352642","10.4703798"
"IT06171","PassengerTerminal","VEZZANO LIGURE","44.1273372","9.8900186"
"IT06303","PassengerStop","BARGA GALLICANO","44.0681147","10.4519397"
"IT06048","Switch","FIRENZE RIFREDI DEV. OLMATELLO","43.8061833","11.2190267"
"IT08003","PassengerTerminal","ALBINIA","42.5021672","11.2113368"
"IT06006","PassengerStop","ARCOLA","44.1186411","9.914646"
"IT06611","PassengerStop","BIFORCO","44.0684257","11.6022556"
"IT06309","PassengerStop","BORGO A MOZZANO","43.9772052","10.5412957"
"IT06751","PassengerStop","CASINO DI TERRA","43.3285781","10.6629831"
"IT06005","PassengerStop","CARRARA AVENZA","44.0512351","10.0629296"
"IT06417","PassengerStop","CALENZANO","43.8564304","11.1453752"
"IT06300","PassengerTerminal","CASTELNUOVO DI GARFAGNANA","44.1163506","10.4090546"
"IT06604","PassengerTerminal","BORGO S.LORENZO","43.9598194","11.3804294"
"IT08007","PassengerStop","CHIARONE","42.3875314","11.4461147"
"IT06920","PassengerTerminal","CASTIGLION FIORENTINO","43.3407478","11.9143599"
"IT06803","PassengerTerminal","CERTALDO","43.5471242","11.0377234"
"IT08201","PassengerTerminal","FABRO-FICULLE","42.8748524","12.0412334"
"IT06223","PassengerStop","FIVIZZANO-GASSANO","44.2026639","10.0916862"
"IT06512","Junction","BIVIO/PC RENAI","43.7834705","11.1296462"
"IT06517","Junction","BIVIO/PC SAMMINIATELLO","43.7451918","11.0318452"
"IT06160","PassengerTerminal","OSTIA PARMENSE","44.5201322","9.8449846"
"IT06511","PassengerStop","MONTELUPO CAPRAIA","43.7333536","11.0190039"
"IT06012","PassengerTerminal","PIETRASANTA","43.9558264","10.2297254"
"IT06728","PassengerTerminal","QUERCIANELLA-SONNINO","43.4549246","10.3725568"
"IT06919","Junction","PM RIGUTINO FRASSINETO","43.3686115","11.8569282"
"IT06508","PassengerTerminal","S.ROMANO-MONTOPOLI-S.CROCE","43.6905775","10.7601627"
"IT06852","DomesticBorderPoint","SINALUNGA","43.2161891","11.744866"
"IT06513","PassengerStop","SIGNA","43.7754393","11.0959716"
"IT06617","PassengerStop","STRADA CASALE","44.1835093","11.6975073"
"IT06156","PassengerStop","SOLIGNANO","44.6140225","9.9801384"
"IT06904","Station","PONTASSIEVE","43.7739431","11.4379147"
"IT06700","PassengerTerminal","VICCHIO","43.9334556","11.4576417"
"IT06601","Junction","PM MONTORSOLI","43.8357016","11.2827249"
"IT04113","Junction","BIVIO RIVAROLO","44.4402973","8.8909851"
"IT04115","Junction","BIVIO/PC FEGINO","44.44606","8.8872701"
"IT04603","FreightTerminal","GENOVA MARITTIMA S.LIMBANIA","44.4134574","8.9121487"
"IT04701","PassengerStop","GENOVA PIAZZA PRINCIPE SOTTERRANEA","44.4149227","8.9181039"
"IT04707","Station","GENOVA NERVI","44.3812584","9.0399005"
"IT04221","FreightTerminal","GENOVA SAMPIERDARENA SM.","44.4194159","8.8853698"
"IT04123","Switch","DEV. ESTR. BORZOLI (LATO OVADA)","44.434443","8.8604759"
"IT04007","Junction","OVADA NORD","44.6466543","8.6446394"
"IT04546","Junction","GRUPPO SCAMBI GENOVA VOLTRI","44.4268452","8.7767639"
"IT04810","PassengerTerminal","ALTARE","44.336161","8.3327557"
"IT04222","PassengerStop","GENOVA S.BIAGIO","44.4826191","8.8998235"
"IT04103","PassengerTerminal","OVADA","44.6303731","8.6323154"
"IT04518","PassengerStop","BORGHETTO S.SPIRITO","44.1090027","8.2423451"
"IT04119","Junction","BIVIO DORIA","44.2884181","8.4490671"
"IT04000","Junction","CASTELLAZZO CASALCERMELLI","44.8438347","8.5896646"
"IT04724","PassengerStop","CAVI","44.2935346","9.3725179"
"IT04220","Station","GENOVA SAMPIERDARENA","44.4130935","8.8872778"
"IT04530","PassengerStop","CELLE","44.3424516","8.5426315"
"IT04803","PassengerStop","BRAGNO","44.3716739","8.3044798"
"IT04217","PassengerTerminal","GENOVA PONTEDECIMO","44.494181","8.9056524"
"IT04722","Station","CHIAVARI","44.3151467","9.3224615"
"IT04003","FreightTerminal","PREDOSA","44.7509724","8.651146"
"IT04731","PassengerTerminal","LEVANTO","44.1741575","9.6160154"
"IT04710","PassengerStop","PONTETTO","44.3773041","9.0769722"
"IT04208","PassengerStop","RIGOROSO","44.6717524","8.8962753"
"IT04545","Junction","GENOVA VOLTRI FM","44.4269103","8.7748691"
"IT04736","PassengerStop","RIOMAGGIORE","44.1008699","9.7356799"
"IT04726","PassengerTerminal","RIVA TRIGOSO","44.2639021","9.4292805"
"IT04802","PassengerTerminal","SANTUARIO","44.3460626","8.4357697"
"IT04126","Switch","DEV. BINARIO CURVA","44.4137061","8.8825027"
"IT04124","Switch","DEV. ESTR. LATO GENOVA PP","44.4152999","8.9345231"
"IT04204","Switch","DEV. ESTR. ARQUATA","44.6857606","8.8937485"
"EU00126","BorderPoint","CONFINE ITALO/FRANCESE LT MENTON","43.78537","7.52957"
"IT04331","SmallStation","RIVALTA SCRIVIA","44.8541577","8.8098644"
"IT04482","PassengerStop","BEVERA","43.8253069","7.5791605"
"IT04521","PassengerStop","BORGIO VEREZZI","44.1577207","8.3090807"
"IT04716","PassengerStop","CAMOGLI S.FRUTTUOSO","44.3481578","9.15675"
"IT04729","PassengerTerminal","FRAMURA","44.2018993","9.5551688"
"IT04215","PassengerTerminal","BUSALLA","44.5755689","8.9436168"
"IT04532","PassengerTerminal","COGOLETO","44.3897532","8.6439167"
"IT04109","PassengerTerminal","GENOVA BORZOLI","44.4346917","8.8666576"
"IT04725","Station","SESTRI LEVANTE","44.2762526","9.397653"
"IT04108","PassengerStop","GENOVA GRANARA","44.4420485","8.8234675"
"IT04110","PassengerStop","GENOVA COSTA DI SESTRI PONENTE","44.4335998","8.8457406"
"IT04538","PassengerStop","GENOVA CORNIGLIANO","44.4147425","8.8650439"
"IT04610","FreightTerminal","GENOVA MARITTIMA","44.4088683","8.8906088"
"IT04705","PassengerStop","GENOVA QUINTO AL MARE","44.3851738","9.0205215"
"IT04534","Station","GENOVA VOLTRI","44.4284586","8.7581696"
"IT04723","PassengerStop","LAVAGNA","44.3056683","9.3463707"
"IT04537","Station","GENOVA SESTRI PONENTE AEROPORTO","44.4223608","8.8477201"
"IT04732","Station","MONTEROSSO","44.1459601","9.6490082"
"IT04713","PassengerStop","MULINETTI","44.3626026","9.1295068"
"IT04700","Station","GENOVA PIAZZA PRINCIPE","44.4175124","8.9207472"
"IT04714","PassengerTerminal","RECCO","44.3612069","9.1467874"
"IT04702","Station","GENOVA BRIGNOLE","44.407207","8.9475583"
"IT04498","Junction","BIVIO CALANDRE","43.7922063","7.5887158"
"IT04118","Junction","PP CORVI","44.4436187","8.8564889"
"IT04526","PassengerTerminal","SPOTORNO NOLI","44.2265271","8.4109346"
"IT04116","Junction","BIVIO SUCCURSALE","44.4426246","8.8871143"
"IT04203","Station","NOVI LIGURE","44.762522","8.7873092"
"IT04529","PassengerStop","ALBISOLA","44.3346796","8.5121014"
"IT04219","PassengerTerminal","GENOVA RIVAROLO","44.4361744","8.8910665"
"IT04704","PassengerTerminal","GENOVA QUARTO DEI MILLE","44.3885993","8.9959833"
"IT04480","PassengerStop","OLIVETTA S.MICHELE","43.8783486","7.5350582"
"IT04801","Station","SAVONA","44.3068837","8.4702624"
"IT04535","PassengerStop","GENOVA PRA","44.425315","8.7882977"
"IT04216","PassengerStop","PIANO ORIZZONTALE DEI GIOVI","44.5309036","8.9192077"
"IT04711","PassengerStop","PIEVE LIGURE","44.3726349","9.0909752"
"IT04101","PassengerTerminal","PRASCO CREMOLINO","44.6489006","8.5500217"
"IT04104","PassengerTerminal","ROSSIGLIONE","44.5669481","8.6680555"
"IT04718","Station","S.MARGHERITA LIGURE PORTOFINO","44.3367487","9.2166702"
"IT04712","PassengerStop","SORI","44.3697861","9.1060145"
"IT04539","Junction","BIVIO CASTELLUCCIO","44.4248749","8.7964755"
"IT04505","PassengerStop","SANREMO","43.8287495","7.7846599"
"EU00129","BorderPoint","CONFINE FRANCESE/ITALIANO LT BREIL ROYA","43.89028","7.53092"
"IT04525","Station","ANDORA","43.9602744","8.1389748"
"IT04523","Station","IMPERIA","43.8972845","8.0308879"
"IT04105","PassengerTerminal","CAMPO LIGURE-MASONE","44.5309053","8.700893"
"IT04302","FreightTerminal","CASSANO SPINOLA","44.7626275","8.8588423"
"IT04107","PassengerTerminal","GENOVA ACQUASANTA","44.4587522","8.773202"
"IT04734","PassengerTerminal","CORNIGLIA","44.1185655","9.7158492"
"IT04218","SmallStation","GENOVA BOLZANETO","44.4592032","8.9002081"
"IT04213","Junction","GENOVA S.QUIRICO","44.4869323","8.8957666"
"IT04102","PassengerStop","MOLARE","44.621971","8.6099155"
"IT04703","PassengerStop","GENOVA STURLA","44.3979662","8.9814714"
"IT04540","PassengerStop","GENOVA VESIMA","44.4161636","8.7141084"
"IT04209","PassengerStop","PIETRABISSARA","44.6580525","8.9228625"
"IT04201","Switch","BIVIO CABINA B","44.7753953","8.7702941"
"IT04117","Junction","BIVIO POLCEVERA","44.434961","8.8902467"
"IT04223","PassengerStop","GENOVA VIA DI FRANCIA","44.4089477","8.8997243"
"IT04531","PassengerTerminal","VARAZZE","44.3568341","8.5666849"
"IT04733","PassengerStop","VERNAZZA","44.1346214","9.6846741"
"IT04503","PassengerTerminal","BORDIGHERA","43.7783207","7.6635117"
"IT04516","PassengerTerminal","ALBENGA","44.0472161","8.2216741"
"IT04730","PassengerStop","BONASSOLA","44.1848577","9.5826818"
"IT04728","PassengerTerminal","DEIVA MARINA","44.2172956","9.5190257"
"IT04536","PassengerStop","GENOVA PEGLI","44.4262256","8.8167731"
"IT04804","PassengerStop","FERRANIA","44.3656325","8.3257249"
"IT04106","PassengerTerminal","MELE","44.4727891","8.7339653"
"IT04212","Junction","MIGNANEGO","44.5390173","8.9299559"
"IT04005","PassengerStop","S.GIACOMO","44.6877422","8.6631938"
"IT04727","PassengerStop","MONEGLIA","44.242441","9.4869562"
"IT04806","FreightTerminal","SAVONA PARCO DORIA","44.2974992","8.4613161"
"IT04100","PassengerStop","VISONE","44.6619496","8.5002101"
"IT04515","PassengerTerminal","ALASSIO","44.0078831","8.1711237"
"IT04517","PassengerStop","CERIALE","44.0989187","8.2342213"
"IT04214","PassengerStop","BORGO FORNARI PER VOLTAGGIO","44.5883656","8.9383045"
"IT04805","SmallStation","S.GIUSEPPE DI CAIRO","44.3705413","8.2877011"
"IT04522","PassengerTerminal","FINALE LIGURE MARINA","44.1691138","8.3403337"
"IT04200","PassengerStop","FRUGAROLO BOSCOMARENGO","44.8416862","8.6827412"
"IT04514","PassengerStop","LAIGUEGLIA","43.9812719","8.1586875"
"IT04519","PassengerTerminal","LOANO","44.122422","8.2545209"
"IT04210","PassengerStop","ISOLA DEL CANTONE","44.6465816","8.9575933"
"IT04207","Station","ARQUATA SCRIVIA","44.6925271","8.885359"
"IT04735","PassengerStop","MANAROLA","44.1052908","9.7290532"
"IT04720","PassengerStop","RAPALLO","44.351389","9.2312844"
"IT04122","Junction","BIVIO/PC BERSAGLIO","44.433258","8.8972972"
"IT04206","PassengerStop","SERRAVALLE SCRIVIA","44.7239227","8.8585682"
"IT04481","PassengerStop","AIROLE","43.8705268","7.5529793"
"IT04533","PassengerStop","ARENZANO","44.4030853","8.6783317"
"IT04112","Junction","BIVIO/PC SCAVALCAMENTO","44.6816505","8.8950572"
"IT04211","PassengerTerminal","RONCO SCRIVIA","44.6145311","8.9494364"
"IT04520","PassengerTerminal","PIETRA LIGURE","44.145336","8.2774035"
"IT04483","Junction","PM KM 11.959","43.8725899","7.5464271"
"IT04709","PassengerStop","BOGLIASCO","44.3791959","9.0660542"
"IT04006","PassengerStop","ROCCAGRIMALDA","44.6752396","8.6561684"
"IT04330","PassengerTerminal","POZZOLO FORMIGARO","44.7973933","8.7825349"
"IT04527","PassengerStop","QUILIANO-VADO LIGURE","44.2799269","8.4355625"
"IT04114","Junction","QUADRIVIO TORBELLA","44.4314622","8.8915307"
"IT04502","PassengerStop","VALLECROSIA","43.7876244","7.6349984"
"IT04524","PassengerStop","DIANO","43.9203461","8.0655988"
"IT04506","PassengerTerminal","TAGGIA ARMA","43.8445259","7.8546654"
"IT04205","FreightTerminal","NOVI SAN BOVO","44.7733644","8.7756141"
"IT04721","PassengerStop","ZOAGLI","44.3354496","9.269124"
"IT04501","Station","VENTIMIGLIA","43.7925691","7.610233"
"IT01719","Junction","BIVIO LAMBRO","45.472668","9.2531114"
"IT01864","PassengerTerminal","BELGIOIOSO","45.1645626","9.316883"
"IT01452","PassengerStop","BRENNA-ALZATE","45.7540389","9.1833316"
"IT01117","PassengerStop","CALDE'","45.9458185","8.6631843"
"IT01604","SmallStation","CASALETTO VAPRIO","45.4086439","9.6317601"
"IT01457","PassengerStop","CASLETTO-ROGENO","45.7860261","9.2753964"
"IT01429","PassengerTerminal","CASTIONE ANDEVENNO","46.1616645","9.8080608"
"IT01713","PassengerStop","CHIARI","45.5401098","9.926483"
"IT01020","PassengerTerminal","ARONA","45.7553937","8.5590963"
"IT01525","PassengerTerminal","CISANO CAPRINO BERGAMASCO","45.7396034","9.4742855"
"IT01852","PassengerTerminal","COLORNO","44.9279406","10.3829505"
"IT01424","PassengerTerminal","COSIO TRAONA","46.1355511","9.5255156"
"IT01501","PassengerStop","LESMO","45.6447464","9.309331"
"IT01010","PassengerStop","CUZZAGO (MI)","45.9936828","8.3740061"
"IT01806","PassengerTerminal","PIZZALE-LUNGAVILLA","45.0490991","9.06824"
"IT01207","PassengerStop","GAZZADA SCHIANNO MORAZZONE","45.7786233","8.8248313"
"IT01902","PassengerTerminal","MANERBIO","45.3572101","10.1323489"
"IT01012","PassengerTerminal","MERGOZZO","45.9613017","8.4409065"
"IT01705","PassengerStop","MELZO","45.502076","9.4200234"
"IT01019","PassengerStop","MEINA","45.7943863","8.535468"
"IT01414","PassengerStop","OLCIO","45.9380081","9.3139252"
"IT01840","SmallStation","MONTIRONE","45.4513487","10.2394874"
"IT01632","PassengerStop","MILANO PORTA ROMANA","45.4459655","9.2152491"
"IT01905","PassengerTerminal","OLMENETA","45.231105","10.0319473"
"IT01931","PassengerTerminal","PINAROLO PO","45.0733984","9.1697881"
"IT01538","PassengerTerminal","PALAZZOLO SULL'OGLIO","45.6018352","9.8958575"
"IT01116","PassengerTerminal","PORTO VALTRAVAGLIA","45.9582234","8.6741656"
"IT01861","PassengerStop","PAVIA PORTA GARIBALDI","45.1839927","9.1673322"
"IT01716","SmallStation","OSPITALETTO TRAVAGLIATO","45.5460413","10.0743673"
"IT01845","PassengerTerminal","REMEDELLO SOPRA","45.2784809","10.3792217"
"IT01904","PassengerTerminal","ROBECCO-PONTEVICO","45.2662209","10.0785941"
"IT01428","PassengerTerminal","S.PIETRO BERBENNO","46.1613439","9.7405169"
"IT01711","PassengerTerminal","ROMANO","45.5238365","9.7534157"
"IT01900","SmallStation","S.ZENO FOLZANO","45.4915521","10.2116922"
"IT01437","PassengerTerminal","TRESENDA-APRICA-TEGLIO","46.1620814","10.0837742"
"IT01049","Junction","TRIPLO BIVIO/PC SEVESO","45.5041625","9.1935677"
"IT01411","PassengerTerminal","VARENNA ESINO","46.0149971","9.286424"
"IT01026","PassengerTerminal","SESTO CALENDE","45.7262365","8.6281521"
"IT01044","Switch","DEV. ESTR. ROGOREDO LATO MILANO PR","45.4464997","9.2285465"
"EU00154","BorderPoint","CONFINE ITALO/SVIZZERO LT MO1","45.8305","9.0346"
"IT01027","PassengerStop","VERGIATE","45.7171214","8.6932131"
"IT01039","PassengerStop","RHO FIERA","45.5215993","9.0871059"
"IT01802","PassengerStop","VILLAMAGGIORE","45.3204481","9.1906813"
"IT01534","PassengerStop","ALBANO S.ALESSANDRO","45.6827442","9.7680414"
"IT01209","PassengerTerminal","ALBIZZATE SOLBIATE ARNO","45.7241204","8.8062253"
"IT01811","Junction","BRESCIA BINARI ESTERNI","45.5362629","10.1750973"
"IT01453","PassengerStop","ANZANO DEL PARCO","45.7649571","9.2026975"
"IT01721","Junction","PM BIVIO ADDA","45.5130644","9.5539822"
"IT01017","PassengerTerminal","BELGIRATE","45.8433386","8.570845"
"IT01047","Junction","BIVIO/PC MIRABELLO","45.4969452","9.2024974"
"IT01830","PassengerStop","BORGOLOMBARDO","45.403856","9.2711311"
"IT01482","PassengerStop","BUTTAFAVA","45.6214123","9.3011996"
"IT01609","PassengerTerminal","CASALBUTTANO","45.2554001","9.9623631"
"IT01051","Junction","QUADRIVIO/ PC TURRO","45.4988171","9.2195153"
"IT01804","SmallStation","S.MARTINO CAVA","45.1448686","9.1153373"
"IT01869","PassengerStop","LAMBRINIA","45.1643759","9.5274376"
"IT01312","PassengerStop","CUCCIAGO","45.7408109","9.0822267"
"IT01415","PassengerTerminal","MANDELLO DEL LARIO","45.9152039","9.3220882"
"IT01642","DomesticBorderPoint","MILANO BOVISA POLITECNICO","45.5037605","9.158971"
"IT01321","PassengerStop","LISSONE-MUGGIO'","45.6059213","9.2353791"
"IT01921","SmallStation","MARCARIA","45.1245176","10.5336627"
"IT01648","PassengerStop","MILANO REPUBBLICA","45.4804834","9.1986802"
"IT01971","PassengerStop","MONTICELLI D'ONGINA","45.0756668","9.9490394"
"IT01403","PassengerTerminal","NOVATE-MEZZOLA","46.2165873","9.4465926"
"IT01460","SmallStation","OGGIONO","45.7889873","9.3375017"
"IT01322","Station","MONZA","45.5777877","9.2732575"
"IT01846","PassengerStop","REMEDELLO SOTTO","45.2574716","10.3884115"
"IT01911","PassengerTerminal","PIZZIGHETTONE","45.1817752","9.7771421"
"IT01528","PassengerTerminal","PONTE S.PIETRO","45.6991536","9.5843496"
"IT01730","Junction","BIVIO CASIRATE","45.50982","9.5174162"
"IT01866","PassengerStop","S.CRISTINA E BISSONE","45.1605307","9.4010131"
"IT01440","SmallStation","TIRANO","46.2153828","10.1669819"
"IT01853","SmallStation","TORRILE S.POLO","44.8856738","10.3628274"
"IT01601","PassengerStop","TREVIGLIO OVEST","45.5217639","9.5803016"
"IT01950","PassengerStop","ROTTOFRENO","45.0605432","9.5491366"
"IT01036","PassengerStop","VANZAGO POGLIANO","45.525219","8.9955454"
"IT01008","PassengerStop","VOGOGNA OSSOLA","46.005887","8.2946831"
"IT01308","PassengerStop","COMO CAMERLATA","45.7850478","9.0822202"
"IT01600","Station","VERDELLO DALMINE","45.6057123","9.6198141"
"IT01050","Switch","CABINA EX BIVIO NOVI","44.8957562","8.8405695"
"IT01037","Station","RHO","45.5238159","9.0435822"
"IT01650","PassengerStop","MILANO DATEO","45.468042","9.217202"
"IT01510","PassengerTerminal","ARCORE","45.6234928","9.3228044"
"IT01310","Junction","PM ALBATE","45.7773654","9.0734835"
"IT01053","Junction","BIVIO/PC TOCE","46.0873171","8.2949505"
"IT01203","PassengerStop","ARCISATE","45.8585773","8.8624347"
"IT01812","Junction","BRESCIA FASCIO MERCI","45.534352","10.1825244"
"IT01843","PassengerStop","CALVISANO","45.3465719","10.3494142"
"IT01712","PassengerStop","CIVIDATE-CALCIO","45.5329342","9.8413443"
"IT01850","SmallStation","CASALMAGGIORE","44.9931366","10.4250367"
"IT01034","PassengerStop","CANEGRATE","45.5692368","8.926615"
"IT01942","PassengerStop","CASTEGGIO","45.0173664","9.1246114"
"IT01462","PassengerStop","CIVATE","45.8312921","9.3529023"
"IT01914","SmallStation","CAVA TIGOZZI","45.1568219","9.9558262"
"IT01307","Station","COMO S.GIOVANNI","45.8089417","9.0723458"
"IT01320","SmallStation","DESIO","45.6201161","9.2184991"
"IT01413","PassengerTerminal","LIERNA","45.9609639","9.3031024"
"IT01118","DomesticBorderPoint","LAVENO MOMBELLO","45.9032721","8.6246043"
"IT01454","DomesticBorderPoint","MERONE","45.7802395","9.243183"
"IT01801","PassengerTerminal","LOCATE TRIULZI","45.3602847","9.221906"
"IT01643","Station","MILANO LANCETTI","45.4926296","9.1758401"
"IT01631","Station","MILANO PORTA GENOVA","45.4533798","9.1693085"
"IT01102","Junction","PC GAGGIANO","45.411882","9.0442766"
"IT01144","PassengerTerminal","MORNAGO CIMBRO","45.7297421","8.7342155"
"IT01630","PassengerTerminal","MILANO S.CRISTOFORO","45.4423156","9.129929"
"IT01522","FreightTerminal","LECCO MAGGIANICO","45.8311785","9.4117174"
"IT01035","Station","PARABIAGO","45.5524432","8.9463381"
"IT01058","PassengerStop","PREGNANA MILANESE","45.5100886","9.0028878"
"IT01514","PassengerStop","OLGIATE-CALCO-BRIVIO","45.7289285","9.4037575"
"IT01060","PassengerTerminal","PARONA LOMELLINA","45.2801048","8.7803233"
"IT01912","PassengerStop","PONTE D'ADDA","45.1843548","9.7907462"
"IT01434","PassengerTerminal","PONTE IN VALTELLINA","46.1626323","9.9759169"
"IT01634","Junction","MILANO ROGOREDO BINARI ESTERNI","45.4461955","9.2313768"
"IT01924","PassengerStop","S.MICHELE IN BOSCO","45.1223991","10.5732972"
"IT01401","PassengerStop","S.CASSIANO VALCHIAVENNA","46.273439","9.3981726"
"IT01122","PassengerStop","TAINO ANGERA","45.7722665","8.6060054"
"IT01829","PassengerStop","S.STEFANO LODIGIANO","45.122093","9.7236199"
"IT01009","PassengerTerminal","PREMOSELLO CHIOVENDA","46.0021295","8.3270748"
"IT01824","SmallStation","TAVAZZANO","45.3262907","9.4027573"
"IT01142","PassengerStop","TRAVEDONA BIANDRONNO","45.809605","8.6963437"
"IT01143","SmallStation","TERNATE VARANO BORGHI","45.7818344","8.7003966"
"IT01842","PassengerTerminal","VIADANA BRESCIANA","45.3736475","10.3318006"
"IT01903","PassengerTerminal","VEROLANUOVA","45.3249866","10.0838824"
"IT01844","PassengerTerminal","VISANO","45.3153063","10.363109"
"IT01527","PassengerTerminal","AMBIVERE MAPELLO","45.7221652","9.5504628"
"IT01427","PassengerTerminal","ARDENNO MASINO","46.1619733","9.6513975"
"IT01715","PassengerStop","SEGRATE","45.4806965","9.2988911"
"IT01438","PassengerStop","BIANZONE","46.17938","10.1125261"
"IT01202","PassengerStop","BISUSCHIO-VIGGIU'","45.8706583","8.8875667"
"IT01503","SmallStation","CALUSCO","45.6841134","9.4706686"
"IT01602","PassengerTerminal","CARAVAGGIO","45.4911582","9.6377415"
"IT01490","PassengerStop","CASSAGO-NIBIONNO-BULCIAGO","45.7462406","9.279851"
"IT01948","PassengerTerminal","CASTEL S.GIOVANNI","45.0632744","9.4368715"
"IT01827","Station","CASALPUSTERLENGO","45.1824769","9.6536305"
"IT01210","PassengerStop","CAVARIA OGGIONA IERAGO","45.6981468","8.8035191"
"IT01536","PassengerStop","CHIUDUNO","45.6504458","9.8469386"
"IT01539","PassengerStop","COLOGNE","45.5766277","9.9353232"
"IT01041","PassengerStop","CORBETTA-S.STEFANO TICINO","45.4808302","8.9174759"
"IT01408","PassengerTerminal","DERVIO","46.0777029","9.3059786"
"IT01407","PassengerStop","DORIO","46.1027459","9.3190808"
"IT01605","SmallStation","CREMA","45.3668603","9.6942299"
"IT01204","PassengerStop","INDUNO OLONA","45.8464375","8.8383773"
"IT01492","PassengerStop","MILANO FORLANINI","45.4639452","9.2370145"
"IT01825","Station","LODI","45.3089611","9.4975948"
"IT01720","FreightTerminal","MELZO SCALO","45.5000026","9.4083137"
"IT01867","PassengerStop","MIRADOLO TERME","45.162005","9.4499617"
"IT01480","PassengerStop","MONZA SOBBORGHI","45.5820843","9.2843811"
"IT01113","SmallStation","LUINO","45.9966435","8.7374864"
"IT01425","PassengerTerminal","MORBEGNO","46.1366478","9.5686624"
"IT01871","PassengerTerminal","OSPEDALETTO LODIGIANO","45.1693298","9.5751649"
"IT01732","Junction","PM BRESCIA OVEST","45.5226518","10.004592"
"IT01436","PassengerStop","S.GIACOMO DI TEGLIO","46.1597192","10.0274372"
"IT01849","PassengerTerminal","S.GIOVANNI IN CROCE","45.0757804","10.3775386"
"IT01943","PassengerStop","S.GIULETTA","45.035714","9.1792655"
"IT01533","PassengerTerminal","SERIATE","45.683146","9.724649"
"IT01949","PassengerStop","SARMATO","45.0630392","9.4911287"
"IT01826","PassengerTerminal","SECUGNAGO","45.2232501","9.5868477"
"IT01645","Station","MILANO PORTA GARIBALDI","45.4849156","9.1876943"
"IT01820","Station","MILANO ROGOREDO","45.4330606","9.2393744"
"IT01485","PassengerTerminal","TRIUGGIO-PONTE ALBIATE","45.6589546","9.2669691"
"EU00153","BorderPoint","CONFINE ITALO/SVIZZERO LT ISELLE","46.27094","8.09526"
"IT01212","Junction","PP INDUNO","45.838697","8.8363229"
"EU00152","BorderPoint","CONFINE ITALO/SVIZZERO LT RANZO","46.1037","8.756673"
"IT01206","PassengerStop","CANTELLO GAGGIOLO","45.8377586","8.9067573"
"IT01211","Junction","PM BEVERA","45.8542452","8.8780848"
"IT01416","PassengerTerminal","ABBADIA LARIANA","45.8958611","9.3351984"
"IT01090","Switch","DEV. ESTR. RHO","45.5192268","9.0294876"
"IT01913","SmallStation","ACQUANEGRA CREMONESE","45.1721004","9.8884602"
"IT01450","PassengerStop","ALBATE-TRECALLO","45.7773859","9.0957755"
"IT01409","PassengerTerminal","BELLANO TARTAVALLE TERME","46.0394409","9.3028004"
"IT01015","PassengerStop","BAVENO","45.9091055","8.5021499"
"IT01488","PassengerTerminal","BESANA","45.7028212","9.2828968"
"IT01451","PassengerTerminal","CANTU'","45.7523161","9.1303345"
"IT01316","SmallStation","CAMNAGO-LENTATE","45.6684238","9.1334707"
"IT01486","PassengerStop","CARATE-CALO'","45.6764509","9.2523208"
"IT01313","PassengerStop","CANTU'-CERMENATE","45.7162339","9.0992949"
"IT01964","PassengerTerminal","CASTIONE DEI MARCHESI","44.9151544","10.0444737"
"IT01707","PassengerTerminal","CASSANO D'ADDA","45.5143722","9.5127688"
"IT01540","PassengerTerminal","COCCAGLIO","45.5609643","9.9776492"
"IT01400","PassengerTerminal","CHIAVENNA","46.3195484","9.4050998"
"IT01865","PassengerTerminal","CORTEOLONA","45.1596993","9.3754855"
"IT01422","PassengerTerminal","DELEBIO","46.1386384","9.4611881"
"IT01841","SmallStation","GHEDI","45.4094401","10.2805165"
"IT01033","PassengerTerminal","LEGNANO","45.593657","8.9106481"
"IT01520","Station","LECCO","45.8564668","9.3936683"
"IT01535","PassengerTerminal","MONTELLO GORLAGO","45.6701691","9.8085034"
"IT01633","Station","MILANO PORTA VITTORIA","45.4596854","9.2241856"
"IT01922","PassengerStop","OSPITALETTO MANTOVANO","45.1297431","10.6044164"
"IT01701","Station","MILANO LAMBRATE","45.4848112","9.2373345"
"IT01433","PassengerStop","POGGIRIDENTI-TRESIVIO-PIATEDA","46.1668837","9.9338405"
"IT01915","Station","CREMONA","45.1432213","10.0179606"
"IT01919","SmallStation","PIADENA","45.1276038","10.3699733"
"IT01059","Station","ALBAIRATE-VERMEZZO","45.4043489","8.957308"
"IT01200","PassengerTerminal","PORTO CERESIO","45.9036761","8.9003769"
"IT01003","Station","DOMODOSSOLA","46.1154279","8.2966943"
"IT01417","PassengerStop","PRATA CAMPORTACCIO","46.3076536","9.3968729"
"IT01809","PassengerStop","PONTECURONE","44.9621504","8.9298857"
"IT01821","PassengerStop","S.GIULIANO MILANESE","45.3912249","9.2864349"
"IT01038","Junction","PC MARCALLO","45.4836796","8.8492357"
"IT01028","PassengerTerminal","SOMMA LOMBARDO","45.6864255","8.7130157"
"IT01941","PassengerStop","S.GIULIANO PIEMONTE","44.8905426","8.7609476"
"IT01945","PassengerTerminal","STRADELLA","45.079466","9.3008784"
"IT01426","PassengerStop","TALAMONA","46.1395119","9.5995517"
"IT01714","PassengerTerminal","ROVATO","45.5519271","10.0009313"
"IT01065","PassengerStop","TREZZANO SUL NAVIGLIO","45.4203724","9.066988"
"IT01916","PassengerTerminal","VILLETTA MALAGNINO","45.1370228","10.1119538"
"IT01523","PassengerStop","VERCURAGO S.GIROLAMO","45.8127648","9.4224133"
"IT01709","PassengerStop","VIDALENGO","45.5178553","9.6396928"
"IT01611","PassengerStop","LEVATE","45.6250841","9.6289035"
"IT01612","PassengerStop","STEZZANO","45.6574393","9.6441985"
"IT01022","Station","PREGLIA","46.1455951","8.2926526"
"IT13653","Station","MACCAGNO","46.0431891","8.7374641"
"IT01952","Station","ISELLE DI TRASQUERA","46.2068389","8.2070177"
"IT01863","PassengerStop","ALBUZZANO","45.1725076","9.2616361"
"IT01515","PassengerStop","AIRUNO","45.7540875","9.4220875"
"IT01947","SmallStation","ARENA PO","45.0820639","9.3604042"
"IT01048","Junction","BIVIO MUSOCCO","45.5079441","9.1483295"
"IT01932","PassengerStop","BARBIANELLO","45.0722339","9.2054627"
"IT01145","PassengerStop","BESNATE","45.6951432","8.761251"
"IT01848","PassengerTerminal","CANNETO SULL'OGLIO","45.1502041","10.3714836"
"IT01944","PassengerTerminal","BRONI","45.0662606","9.2587734"
"IT01491","PassengerTerminal","COSTA MASNAGA","45.7634245","9.2852486"
"IT01315","SmallStation","CARIMATE","45.6970911","9.107202"
"IT01064","PassengerStop","CORSICO","45.4359212","9.1090333"
"IT01511","Station","CARNATE USMATE","45.6530693","9.3751016"
"IT01412","PassengerStop","FIUMELATTE","45.9990106","9.2928854"
"IT01917","PassengerTerminal","GAZZO PIEVE S.GIACOMO","45.1371544","10.1899244"
"IT01537","PassengerTerminal","GRUMELLO DEL MONTE","45.6341006","9.8627826"
"IT01120","PassengerStop","LEGGIUNO MONVALLE","45.8673531","8.6295027"
"IT01040","Station","MAGENTA","45.4682054","8.8806545"
"IT01822","PassengerTerminal","MELEGNANO","45.3563237","9.3192838"
"IT01647","PassengerStop","MILANO PORTA GARIBALDI SOTTERRANEA","45.4842251","9.1851327"
"IT01710","PassengerStop","MORENGO BARIANO","45.5216342","9.7031298"
"IT01862","PassengerTerminal","MOTTA S.DAMIANO","45.1783401","9.2198768"
"IT01030","Station","GALLARATE","45.6598256","8.7982641"
"IT01171","Switch","RHO DEVIATOIO ESTREMO L.AV","45.5230143","9.0825295"
"IT01870","PassengerStop","ORIO LITTA","45.1667798","9.550597"
"IT01463","PassengerTerminal","VALMADRERA","45.84644","9.368208"
"IT01318","DomesticBorderPoint","SEREGNO","45.6460077","9.2028642"
"IT01430","Station","SONDRIO","46.1670636","9.8729583"
"IT01706","PassengerStop","TRECELLA","45.5127877","9.4806942"
"IT01325","Station","SESTO S.GIOVANNI","45.5410893","9.2392704"
"IT01404","PassengerStop","VERCEIA","46.2028217","9.4584297"
"IT01013","Station","VERBANIA-PALLANZA","45.9438243","8.4722645"
"IT01610","PassengerStop","MADIGNANO","45.3438242","9.7301913"
"IT01622","PassengerStop","CAPRIOLO","45.6455585","9.9338208"
"IT01704","PassengerStop","VIGNATE","45.4943021","9.3764967"
"IT01111","PassengerStop","COLMEGNA","46.0249263","8.7520426"
"IT01110","Station","PINO TRONZANO","46.0986657","8.7368626"
"IT01062","PassengerTerminal","ABBIATEGRASSO","45.3978043","8.9206165"
"IT01847","PassengerTerminal","ASOLA","45.2204538","10.4023154"
"IT01901","SmallStation","BAGNOLO MELLA","45.4285296","10.1836194"
"IT01930","PassengerStop","BRESSANA ARGINE","45.0727602","9.1353278"
"IT01208","PassengerStop","CASTRONNO","45.745238","8.8103224"
"IT01513","PassengerStop","CERNUSCO-MERATE","45.6950966","9.3968153"
"IT01435","PassengerStop","CHIURO","46.1646576","9.9923483"
"IT01100","Switch","RHO DEVIATOIO ESTREMO L.NO","45.5262006","9.0718254"
"IT01004","FreightTerminal","DOMO II","46.0713939","8.28691"
"IT01420","Station","COLICO","46.1380089","9.3752381"
"IT01031","DomesticBorderPoint","BUSTO ARSIZIO","45.6161623","8.8650446"
"IT01529","Station","BERGAMO","45.6902648","9.6751002"
"IT01828","Station","CODOGNO","45.1548989","9.7013829"
"IT01405","PassengerTerminal","DUBINO","46.172794","9.4321965"
"IT01121","Junction","PM ISPRA","45.8115751","8.6213583"
"IT01025","PassengerStop","DORMELLETTO","45.7230098","8.5821637"
"IT01500","PassengerTerminal","MACHERIO SOVICO","45.6424846","9.2669011"
"IT01910","PassengerStop","MALEO","45.1701186","9.7552042"
"IT01018","PassengerStop","LESA","45.8256068","8.5585906"
"IT01851","PassengerStop","MEZZANI RONDANI","44.9667584","10.3988404"
"IT01819","Switch","DEV. ESTR. ROGOREDO LATO PM TRECCA","45.4433078","9.2352123"
"IT01649","PassengerStop","MILANO PORTA VENEZIA","45.4763548","9.2077525"
"IT01722","PassengerStop","POZZUOLO MARTESANA","45.5086786","9.4574027"
"IT01458","PassengerTerminal","MOLTENO","45.7809349","9.301702"
"IT01512","PassengerStop","OSNAGO","45.6785286","9.3870079"
"IT01406","PassengerTerminal","PIONA","46.1246858","9.3507763"
"IT01703","Station","PIOLTELLO LIMITO","45.4860145","9.3293384"
"IT01055","Junction","PM GHISOLFA","45.4992907","9.1565208"
"IT01032","PassengerStop","MILANO ROMOLO","45.4432294","9.1678649"
"IT01624","PassengerStop","S.DONATO MILANESE","45.4179838","9.2540002"
"IT01640","Station","MILANO CERTOSA","45.5069867","9.1339975"
"IT01951","PassengerTerminal","S.NICOLO","45.0588404","9.6064536"
"IT01504","PassengerTerminal","TERNO","45.6886524","9.5361868"
"IT01607","PassengerTerminal","SORESINA","45.283087","9.8566411"
"IT01439","PassengerStop","VILLA DI TIRANO","46.1961646","10.1303578"
"IT01962","SmallStation","VILLANOVA D'ARDA","45.0282887","9.9933114"
"IT01481","PassengerTerminal","VILLASANTA PARCO","45.6034304","9.3049327"
"IT01620","PassengerStop","PARATICO SARNICO","45.6645972","9.9555758"
"IT01042","SmallStation","VITTUONE ARLUNO","45.4910587","8.9473162"
"IT01023","Station","VARZO","46.2062509","8.2449559"
"IT01052","Junction","BIVIO/PC ROSALES","45.7666465","9.0808214"
"IT01141","PassengerTerminal","BESOZZO","45.8421914","8.6630253"
"IT01054","Junction","BIVIO/PC VALLE","46.0471489","8.2777731"
"IT01483","PassengerStop","BIASSONO-LESMO PARCO","45.632211","9.2984162"
"IT01551","Junction","BIVIO/PC MELEGNANO","45.3419367","9.3486231"
"IT01717","Station","BRESCIA","45.5323103","10.2128449"
"IT01810","Station","TORTONA","44.9001276","8.8617886"
"IT01920","SmallStation","BOZZOLO","45.1072454","10.4726745"
"IT01963","PassengerTerminal","BUSSETO","44.9746863","10.0389209"
"IT01805","PassengerTerminal","BRESSANA BOTTARONE","45.0857665","9.1099901"
"IT01970","PassengerTerminal","CAORSO","45.0420436","9.8681705"
"IT01524","Station","CALOLZIOCORTE OLGINATE","45.8016162","9.4269979"
"IT01603","PassengerStop","CAPRALBA","45.4438679","9.6400383"
"IT01123","PassengerStop","CASTELLETTO TICINO","45.7107805","8.6383051"
"IT01606","PassengerTerminal","CASTELLEONE","45.3018255","9.7678048"
"IT01923","PassengerTerminal","CASTELLUCCHIO","45.1442876","10.6475024"
"IT01029","PassengerStop","CASORATE SEMPIONE","45.6750772","8.7439688"
"IT01960","PassengerTerminal","CASTELVETRO","45.1000954","9.9821865"
"IT01803","PassengerTerminal","CERTOSA DI PAVIA","45.2569273","9.1544646"
"IT01868","SmallStation","CHIGNOLO PO","45.1609369","9.4942025"
"IT01484","PassengerStop","MACHERIO-CANONICA","45.6455348","9.2867506"
"IT01063","PassengerStop","GAGGIANO","45.4088491","9.0312478"
"IT01702","FreightTerminal","MILANO SMISTAMENTO","45.4751033","9.269634"
"IT01456","PassengerStop","MOIANA","45.7870764","9.2556317"
"IT01502","PassengerTerminal","PADERNO ROBBIATE","45.6783059","9.4392203"
"IT01112","PassengerStop","CESANO BOSCONE","45.4303081","9.0915301"
"IT01906","Junction","PM KM. 5.420","45.1821425","10.0340131"
"IT01526","PassengerStop","PONTIDA","45.7300809","9.5116532"
"IT01043","Junction","PM TRECCA","45.4582458","9.2374185"
"IT01489","PassengerStop","RENATE-VEDUGGIO","45.7283025","9.2798525"
"IT01326","Station","MILANO GRECO PIRELLI","45.5127213","9.2144641"
"IT01961","PassengerStop","S.GIULIANO PIACENTINO","45.0706285","9.9859358"
"IT01461","PassengerStop","SALA AL BARRO-GALBIATE","45.8210872","9.3592437"
"IT01860","Station","PAVIA","45.1888439","9.1446862"
"IT01823","PassengerStop","S.ZENONE AL LAMBRO","45.3378215","9.3612708"
"IT01104","PassengerStop","PIEVE EMANUELE","45.3395867","9.2035354"
"IT01402","PassengerStop","SAMOLACO","46.2464277","9.423601"
"IT01140","PassengerStop","SANGIANO","45.8744679","8.6307916"
"IT01940","SmallStation","SPINETTA","44.8823734","8.6831631"
"IT01016","PassengerTerminal","STRESA","45.8844893","8.5314788"
"IT01918","PassengerTerminal","TORRE DE' PICENARDI","45.1371953","10.2868557"
"EU00155","BorderPoint","CONFINE ITALO/SVIZZERO LT MO2","45.8304","9.0352"
"IT01061","PassengerTerminal","VIGEVANO","45.312715","8.8619821"
"IT01487","PassengerStop","VILLA RAVERIO","45.6904153","9.2615698"
"IT01700","Station","MILANO CENTRALE","45.4861556","9.2043921"
"IT01205","Station","VARESE","45.816155","8.8333131"
"EU00156","PassengerStop","CONFINE SVIZZERA/ITALIA LT STABIO","45.838169","8.9110284"
"IT01327","Junction","PIAZZALETTO LOCOMOTIVE","45.4966509","9.2150817"
"IT01708","Station","TREVIGLIO","45.5150612","9.5879333"
"IT01530","PassengerStop","BERGAMO OSPEDALE","45.6882139","9.6386212"
"IT01608","PassengerStop","ARCENE","45.5753888","9.6055632"
"IT01639","PassengerStop","MILANO VILLAPIZZONE","45.5022277","9.1499995"
"IT01807","Station","VOGHERA","44.9980987","9.0098362"
"IT09117","Switch","DEV. ESTR. VENAFRO NORD","41.4707554","14.0308451"
"IT09458","PassengerTerminal","BARANELLO","41.5176115","14.596299"
"IT09314","PassengerTerminal","APICE S.ARCANGELO BONITO","41.1409235","14.918721"
"IT09004","PassengerStop","ALBANOVA","40.9961148","14.1285909"
"IT09102","PassengerStop","BAGNOLI AGNANO TERME","40.8194392","14.1666896"
"IT09524","PassengerStop","FRATTE VILLA COMUNALE","40.696204","14.7780803"
"IT09816","Station","CAVA DEI TIRRENI","40.7036574","14.7084534"
"IT09002","PassengerStop","CANCELLO ARNONE","41.0633709","14.0290027"
"IT09199","PassengerStop","FONTANAROSA-CERVARO","41.4469241","13.8639426"
"IT09466","PassengerTerminal","LARINO","41.8001505","14.9182183"
"IT09053","PassengerTerminal","ISERNIA","41.5970315","14.2355134"
"IT09311","DomesticBorderPoint","BENEVENTO","41.1419059","14.7699825"
"IT09313","Station","PADULI SUL CALORE","41.1462347","14.838869"
"IT09300","PassengerTerminal","GRICIGNANO-TEVEROLA","40.9981255","14.2406884"
"IT09220","FreightTerminal","NAPOLI TRACCIA","40.8579217","14.2976975"
"IT09123","Switch","DEV. ESTR. NAPOLI GIANTURCO","40.8535092","14.2841649"
"IT09701","PassengerTerminal","PALMA S.GENNARO","40.8651431","14.539877"
"IT09207","PassengerTerminal","PIGNATARO MAGGIORE","41.1742275","14.1601742"
"IT09325","Station","PONTE ALBANITO","41.3514781","15.5329784"
"IT09829","PassengerTerminal","ROMAGNANO-VIETRI-SALVITELLE","40.6100401","15.4476482"
"IT09302","PassengerStop","RECALE","41.0623456","14.3032221"
"IT09062","PassengerStop","SESTO CAMPANO","41.4200067","14.0888926"
"IT09101","Station","POZZUOLI SOLFATARA","40.8275819","14.126161"
"IT09771","PassengerStop","ROVIGLIANO","40.734544","14.4720782"
"IT09827","PassengerTerminal","SICIGNANO DEGLI ALBURNI","40.6054496","15.2909022"
"IT09326","PassengerTerminal","TELESE CERRETO","41.2117098","14.5261539"
"IT09954","Junction","1^BIVIO/PC GRICIGNANO","41.0216118","14.2428868"
"IT09119","Junction","BIVIO NOLA","40.9679424","14.4483158"
"IT09714","Junction","BIVIO/PC S.LUCIA (NA)","40.74288","14.682732"
"IT09526","Station","BORGO","40.8459699","14.7840888"
"IT09452","Junction","BOSCO REDOLE","41.4588065","14.5881746"
"IT09832","PassengerTerminal","BARAGIANO-RUOTI","40.6952099","15.5692048"
"IT09321","PassengerTerminal","BOVINO DELICETO","41.2783513","15.3692488"
"IT09050","PassengerTerminal","CARPINONE","41.5880476","14.3267758"
"IT09510","SmallStation","CHIANCHE CEPPALONI","41.0501256","14.7776044"
"IT09003","Station","VILLA LITERNO","41.0049506","14.0675295"
"IT09100","PassengerTerminal","GIUGLIANO QUALIANO","40.9350167","14.1037685"
"IT09826","PassengerTerminal","CONTURSI TERME","40.6300451","15.2354867"
"IT09813","PassengerTerminal","PAGANI","40.7465325","14.61699"
"IT09709","PassengerStop","NOCERA INFERIORE MERCATO","40.7456661","14.6491169"
"IT09106","PassengerStop","NAPOLI PIAZZA AMEDEO","40.8385012","14.232965"
"IT09822","PassengerStop","MONTECORVINO","40.6171537","14.9455817"
"IT09109","PassengerStop","NAPOLI PIAZZA GARIBALDI","40.8523362","14.2750793"
"IT09190","Switch","DEV. DIR. ROCCA D'EVANDRO","41.4388589","13.9063201"
"IT09318","PassengerTerminal","SAVIGNANO GRECI","41.2305917","15.167108"
"IT09801","PassengerStop","PIETRARSA-S.GIORGIO A CREMANO","40.8224288","14.3205702"
"IT09811","PassengerTerminal","SCAFATI","40.746026","14.52325"
"IT09821","SmallStation","PONTECAGNANO","40.6410285","14.8702613"
"IT09804","PassengerTerminal","S.MARIA LA BRUNA","40.7554369","14.4076506"
"IT09839","PassengerTerminal","ARECHI","40.6482201","14.8242351"
"IT09307","PassengerTerminal","SOLOPACA","41.2105231","14.5714022"
"IT09000","PassengerTerminal","SESSA AURUNCA-ROCCAMONFINA","41.1960279","13.8756709"
"IT09951","Junction","PM TORA-PICCILLI","41.3556432","14.0346606"
"IT09953","Junction","1^BIVIO CASERTA NORD","41.1676143","14.1392301"
"IT09956","Junction","2^BIVIO CASERTA NORD","41.1335743","14.1896331"
"IT09798","PassengerStop","ACQUAMELA","40.733033","14.7720435"
"IT09806","Station","TORRE ANNUNZIATA CENTRALE","40.7471335","14.4637431"
"IT09514","Station","AVELLINO","40.9216064","14.8205799"
"IT09116","Junction","DOPPIO BIVIO CASSINO","40.8697058","14.3006372"
"IT09217","Switch","DEV. ESTR. NAPOLI CENTRALE","40.8539115","14.2908085"
"IT09459","PassengerTerminal","CAMPOBASSO","41.5581469","14.6639151"
"IT09519","SmallStation","FISCIANO","40.7606773","14.7753731"
"IT09522","SmallStation","FRATTE","40.6994895","14.7753727"
"IT09823","Station","BATTIPAGLIA","40.6059407","14.9827289"
"IT09301","PassengerStop","MARCIANISE","41.0359578","14.2876542"
"IT09223","FreightTerminal","MADDALONI MARCIANISE UM1 FA/FT","41.0027472","14.3760955"
"IT09517","PassengerStop","MONTORO SUPERIORE","40.8316076","14.8021669"
"IT09706","PassengerTerminal","MERCATO S.SEVERINO","40.7830903","14.759744"
"IT09110","Station","NAPOLI GIANTURCO","40.8539529","14.2877293"
"IT09007","PassengerStop","S.ANTIMO-S.ARPINO","40.9491865","14.2474031"
"IT09717","Junction","PM TORRICCHIO","40.7511707","14.6613717"
"IT09121","Junction","DOPPIO BIVIO MARITTIMA","40.8464724","14.2956593"
"IT09838","PassengerStop","ARBOSTELLA","40.6515688","14.8130828"
"IT09304","PassengerTerminal","VALLE DI MADDALONI","41.0875524","14.4260441"
"IT09477","PassengerStop","S.MICHELE","41.5789018","14.6806081"
"IT09830","PassengerStop","BALVANO RICIGLIANO","40.6499881","15.4953008"
"IT09451","Junction","CANTALUPO DEL SANNIO-MACCHIAGODENA","41.5316048","14.3942517"
"IT09828","SmallStation","BUCCINO S.GREGORIO MAGNO","40.6008036","15.3741967"
"IT09324","Station","CORSANO","41.1644737","14.9584496"
"IT09461","PassengerTerminal","MATRICE-MONTAGANO-S.GIOVANNI IN GALDO","41.6213223","14.6995512"
"IT09212","PassengerStop","MADDALONI INFERIORE","41.0359499","14.38049"
"IT09319","Station","MONTAGUTO PANNI","41.2353608","15.2351244"
"IT09201","PassengerStop","MIGNANO MONTE LUNGO","41.4075874","13.9866545"
"IT09818","Station","SALERNO","40.675132","14.7728095"
"IT09211","Station","CASERTA","41.068656","14.3284439"
"IT09108","PassengerStop","NAPOLI PIAZZA CAVOUR","40.8555624","14.2560989"
"IT09104","PassengerStop","NAPOLI PIAZZA LEOPARDI","40.8239628","14.199112"
"IT09204","PassengerStop","RIARDO-PIETRAMELARA","41.2651757","14.1249383"
"IT09468","Junction","S.MARTINO IN PENSILIS","41.8772137","14.9842051"
"IT09005","PassengerTerminal","S.MARCELLINO FRIGNANO","40.992105","14.1719671"
"IT09835","PassengerStop","TORRIONE","40.6703547","14.7901083"
"IT09836","PassengerStop","PASTENA","40.6648122","14.799748"
"IT09837","PassengerTerminal","MERCATELLO","40.6588778","14.8045518"
"IT09814","Station","NOCERA INFERIORE","40.7452331","14.636402"
"IT09205","PassengerTerminal","TEANO","41.2318042","14.0770608"
"IT09051","PassengerStop","DUCA D'AOSTA","41.5247922","14.6012328"
"IT09198","Switch","ROCCA D'EVANDRO DEV. DIRAMAZIONE AV","41.4388573","13.9037566"
"IT09805","PassengerStop","TORRE ANNUNZIATA CITTA'","40.7540702","14.4486245"
"IT09060","PassengerTerminal","VENAFRO","41.4829728","14.0487132"
"IT09812","PassengerTerminal","ANGRI","40.7464018","14.5753676"
"IT09215","Station","ACERRA","40.939061","14.3722354"
"IT09061","Station","CAPRIATI AL VOLTURNO","41.4427899","14.0706485"
"IT09316","PassengerTerminal","ARIANO IRPINO","41.1818788","15.1175041"
"IT09453","PassengerTerminal","BOIANO","41.4878912","14.4745358"
"IT09465","PassengerTerminal","CASACALENDA GUARDIALFIERA","41.7381067","14.8495974"
"IT09216","Station","CASALNUOVO","40.9154629","14.352899"
"IT09323","PassengerStop","CASTELFRANCO IN MISCANO","41.2240839","15.0750169"
"IT09703","PassengerTerminal","CODOLA","40.7676777","14.6656093"
"IT09463","PassengerTerminal","RIPABOTTONI S.ELIA","41.6696615","14.8443404"
"IT09810","Station","POMPEI","40.7459165","14.5011082"
"IT09309","PassengerTerminal","PONTE CASALDUNI","41.2141734","14.6964485"
"IT09111","PassengerStop","QUARTO DI MARANO","40.8710776","14.1227948"
"IT09058","SmallStation","ROCCA RAVINDOLA","41.5210412","14.122952"
"IT09308","PassengerTerminal","S.LORENZO MAGGIORE","41.2197497","14.6484063"
"IT09523","PassengerStop","S.MICHELE DI SERINO","40.8745089","14.8534339"
"IT09209","DomesticBorderPoint","S.MARIA CAPUA VETERE","41.073525","14.2540738"
"IT09125","Switch","DEV. DIR. PM CASORIA","40.8933165","14.3571008"
"IT09702","Station","SARNO","40.8130579","14.612435"
"IT09994","Junction","MADDALONI MARCIANISE SM. UM1","41.0015864","14.3755595"
"IT09310","Station","VITULANO FOGLIANISE","41.1723836","14.7244293"
"IT09997","Junction","PM OVEST","41.0019127","14.3402773"
"IT09203","Station","VAIRANO-CAIANELLO","41.3174448","14.1040064"
"IT09950","Junction","BIVIO CASSINO SUD","41.4158213","13.9390689"
"IT09952","Junction","PC PIGNATARO","41.1912738","14.1157728"
"IT09306","PassengerTerminal","AMOROSI MELIZZANO","41.1927316","14.4792322"
"IT09520","SmallStation","BARONISSI","40.7454243","14.7724708"
"IT09509","PassengerTerminal","BENEVENTO PORTA RUFINA","41.1235687","14.7843038"
"IT09988","Station","NAPOLI AFRAGOLA","40.9327423","14.331872"
"IT09001","PassengerTerminal","FALCIANO-MONDRAGONE-CARINOLA","41.1235248","13.9717895"
"IT09305","PassengerTerminal","FRASSO TELESINO-DUGENTA","41.1372451","14.4594442"
"IT09008","PassengerStop","FRATTAMAGGIORE-GRUMO","40.9400199","14.263672"
"IT09707","PassengerStop","LANZARA FIMIANI","40.76968","14.6811462"
"IT09529","PassengerStop","MONTEFREDANE","40.9511412","14.8277599"
"IT09518","SmallStation","MONTORO FORINO","40.8199851","14.757376"
"IT09107","PassengerStop","NAPOLI MONTESANTO","40.8478082","14.2440187"
"IT09112","Switch","DEV. INTERNO NAPOLI CENTRALE","40.8541888","14.2863402"
"IT09700","Station","NOLA","40.9233809","14.5254774"
"IT09513","PassengerTerminal","PRATA PRATOLA","40.9885052","14.8426568"
