"id","extralabel","name","latitude","longitude"
"CH02136","Junction","Aarau GB","47.3945291","8.0664379"
"CH08254","Junction","Brenzikofen","46.8183448","7.6107452"
"CH07476","Junction","Blausee-Mitholz","46.5289637","7.6755574"
"CH02025","Junction","Baldegg","47.185689","8.2802315"
"CH02023","Junction","Ballwil","47.1537677","8.3168988"
"CH03113","Junction","Blumenau","47.2236707","8.8424051"
"CH03134","Junction","Bauma","47.3688366","8.878233"
"CH07082","Junction","Bern  Europaplatz","46.9434464","7.4074695"
"CH04106","Junction","Bern Bümpliz Süd","46.9374875","7.395238"
"CH04489","Junction","Bern Bümpliz Nord","46.9458292","7.3897557"
"CH07081","Junction","Bern Fischermätteli","46.9417654","7.4121293"
"CH06190","Junction","Bussnang","47.5560841","9.0841631"
"CH16765","Junction","Bern Henkerbrünnli","46.9535221","7.4388494"
"CH03118","Junction","Benken SG","47.2044581","9.0086542"
"CH04495","Junction","Bern Stöckacker","46.9463603","7.4011785"
"CH07079","Junction","Bern Weissenbühl","46.9357794","7.4300188"
"CH07001","Junction","Bern Wylerfeld","46.9658405","7.4583093"
"CH07010","Junction","Bern Weyermannshaus","46.9473253","7.4109287"
"CH02216","Junction","Benzenschwil","47.2468515","8.3656169"
"CH05207","Junction","Bodio TI","46.3802545","8.906568"
"CH04039","Junction","Bossy Bois (embr)","46.8283375","6.9604596"
"CH03114","Junction","Bollingen","47.2173527","8.879213"
"CH04218","Junction","Bôle","46.9694229","6.8383745"
"CH07292","Junction","Boltigen","46.6273683","7.3900737"
"CH02222","Junction","Bonstetten-Wettswil","47.3259013","8.4681969"
"CH02032","Junction","Boniswil","47.3150387","8.1845605"
"CH02214","Junction","Boswil-Bünzen","47.3051817","8.3152836"
"CH06127","Junction","Bottighofen","47.6407072","9.2131041"
"CH01426","Junction","Bouveret","46.3858172","6.8532439"
"CH07092","Junction","Belp Steinbach","46.8951646","7.4930918"
"CH01609","Junction","Brig","46.3194227","7.9880947"
"CH15379","Junction","Basel SBB RB Gr T","47.5312471","7.6612123"
"CH02210","Junction","Birrfeld","47.4436599","8.2157445"
"CH04403","Junction","Bargen BE","47.0401617","7.2611804"
"CH02002","Junction","Brittnau-Wikon","47.2626662","7.9570408"
"CH15310","Junction","Brig-Lötschberg (Abzw)","46.3195659","7.9841556"
"CH05042","Junction","Brunnmatt (Spw)","47.0687158","8.5030847"
"CH06294","Junction","Brunnadern-Neckertal","47.3378275","9.1305954"
"CH06181","Junction","Bronschhofen","47.4754444","9.0346779"
"CH06188","Junction","Bronschhofen AMP","47.4812671","9.0309281"
"CH01641","Junction","Brig RB","46.322464","8.0003878"
"CH08299","Junction","Brüttisellen (Km-Sprung)","47.4263299","8.6357466"
"CH01105","Junction","Bretonnières","46.7150553","6.4747325"
"CH01610","Junction","Brig Tunnel","46.3245679","8.0069423"
"CH05007","Junction","Brunnen","46.9991749","8.6100677"
"CH15380","Junction","Brunnen Süd (Abzw)","46.9915718","8.6103109"
"CH15381","Junction","Basel SBB RB I (Abzw)","47.5247605","7.6781388"
"CH15382","Junction","Basel Auhafen","47.5386644","7.6620211"
"CH07916","Junction","Birsfelden Ost (Abzw)","47.5409959","7.658527"
"CH15384","Junction","Birsfelden Hafen Gleisende","47.5576878","7.631777"
"CH18903","Junction","Birsfelden Hafen (Abzw)","47.5491032","7.6463334"
"CH00122","Junction","Bassecourt","47.3366869","7.2468462"
"CH03307","Junction","Bassersdorf","47.4385706","8.6262209"
"CH00136","Junction","Basel Dreispitz","47.5374361","7.6095959"
"CH08328","Junction","Bassersdorf Ost (Vzw)","47.4377096","8.6311396"
"CH00052","Junction","Basel Grenze (FR)","47.5775602","7.5675951"
"CH18904","Junction","Kleinhüningen Hafen Gleisende","47.5699562","7.586325"
"CH15386","Junction","Basel SBB Nordost (Abzw)","47.5448957","7.6033317"
"CH15387","Junction","Basel SBB Ost (Abzw)","47.5449364","7.5956199"
"CH15388","Junction","Basel SBB RB II Ost (Abzw)","47.5264697","7.6738198"
"CH16180","Junction","Basel VB Grenze","47.5602514","7.6131851"
"CH15389","Junction","Basel SBB West (Abzw)","47.5461903","7.5795674"
"CH06182","Junction","Bettwiesen","47.4986213","9.0207796"
"CH03122","Junction","Bubikon","47.270841","8.8227148"
"CH06219","Junction","Burgau Deponie ZAB (Agl)","47.4074213","9.214846"
"CH03400","Junction","Bülach","47.5239499","8.5362092"
"CH08142","Junction","Bützberg Ost (Agl)","47.2125765","7.7448743"
"CH06203","Junction","Bütschwil","47.3595913","9.0751511"
"CH01202","Junction","Burier","46.4478865","6.8771218"
"CH16350","Junction","Buchrain","47.0936499","8.3566585"
"CH04415","Junction","Busswil BE","47.0986848","7.3186229"
"CH04206","Junction","Bevaix","46.9296962","6.8116803"
"CH02034","Junction","Beinwil am See","47.2672199","8.2022355"
"CH07072","Junction","Burgistein","46.7894377","7.5212267"
"CH02033","Junction","Birrwil","47.2878566","8.1990173"
"CH19030","Junction","Bern Wyler","46.9665979","7.4602854"
"CH19180","Junction","Bern Wyler West (Abzw)","46.9637567","7.4491341"
"CH01117","Junction","Bussigny","46.5475904","6.5518261"
"CH15312","Junction","Bussigny Est (bif)","46.5449588","6.5584391"
"CH15313","Junction","Bussigny-Scheuchzer (bif)","46.5448766","6.5555696"
"CH04019","Junction","Bressonnaz","46.6531516","6.7912631"
"CH06215","Junction","Bischofszell Nord","47.5004152","9.2340353"
"CH06213","Junction","Bischofszell Stadt","47.4921409","9.2414786"
"CH18336","Junction","Carouge-Bachet (saut km)","46.1753773","6.1269151"
"CH01436","Junction","Monthey Centre agr Bas-V (embr","46.2807073","6.9419019"
"CH15978","Junction","Camorino Sud","46.1506084","8.9877775"
"CH10281","Junction","Castione Officine","46.2333931","9.0376181"
"CH05304","Junction","Capolago-Riva S. Vitale","45.9028373","8.9789053"
"CH18259","Junction","Castione Impianto d'inversione","46.2284444","9.0408939"
"CH18908","Junction","Castione Nord (c bin)","46.2369551","9.0357485"
"CH05212","Junction","Castione-Arbedo","46.2229217","9.0414618"
"CH01422","Junction","Collombey","46.2711929","6.9487564"
"CH04203","Junction","Concise","46.8508815","6.7231574"
"CH00141","Junction","Courchavon","47.4397744","7.057646"
"CH05404","Junction","Cadenazzo","46.15262","8.9416989"
"CH04217","Junction","Champ-du-Moulin","46.9599118","6.774989"
"CH15391","Junction","Cadenazzo Ovest (bif)","46.1544462","8.9205174"
"CH01024","Junction","Céligny","46.3479746","6.2000872"
"CH15314","Junction","La Chaux-de-Fonds Nord","47.0999596","6.8304527"
"CH00121","Junction","Courfaivre","47.3350831","7.2911657"
"CH00125","Junction","Courgenay","47.4052262","7.124205"
"CH04133","Junction","Cugy FR","46.8160283","6.8891646"
"CH09000","Junction","Chur","46.8530842","9.5289377"
"CH01504","Junction","Chamoson-St-Pierre-de-Clages","46.1888364","7.241099"
"CH02203","Junction","Cham","47.1782439","8.4575048"
"CH07918","Junction","Chapelle (diag)","46.5826127","6.8342905"
"CH01501","Junction","Charrat-Fully","46.1268129","7.1264766"
"CH04017","Junction","Châtillens","46.570533","6.8154815"
"CH04241","Junction","Chavannes","47.0826381","7.1320585"
"CH04025","Junction","Chénens","46.7492108","7.0004296"
"CH16274","Junction","Chêne-Bourg","46.1966002","6.1973335"
"CH16275","Junction","Chêne-Bourg-Frontière","46.1939254","6.2128103"
"CH01510","Junction","Châteauneuf-Conthey","46.2161087","7.3051022"
"CH16272","Junction","Genève-Champel","46.1921933","6.1534987"
"CH05307","Junction","Chiasso","45.832168","9.0314496"
"CH15392","Junction","Chiasso Ovest (bif)","45.8337909","9.0269467"
"CH15393","Junction","Chiasso Est","45.8299445","9.0368403"
"CH05243","Junction","Chiggiogna (c bin)","46.4665391","8.8239144"
"CH04234","Junction","Chambrelien","46.967109","6.8122568"
"CH10684","Junction","Châtelaine Nord (bif)","46.2170663","6.1029127"
"CH01027","Junction","Châtelaine (bif)","46.2152134","6.104971"
"CH15315","Junction","Chambrelien (cul-de-sac)","46.9654342","6.8086908"
"CH15316","Junction","Chambrelien Nord (bif)","46.9684211","6.8135509"
"CH15632","Junction","Chiasso Olimpino II","45.8207781","9.0474565"
"CH04144","Junction","Yverdon-Champ Pittet","46.7821496","6.6623201"
"CH03149","Junction","Chriesbach (Abzw)","47.4042782","8.6134886"
"CH04131","Junction","Cheyres","46.8169458","6.7863937"
"CH05309","Junction","Chiasso Smistamento","45.836505","8.9990773"
"CH15394","Junction","Chiasso Smistamento Nord (bif)","45.8413919","9.0043592"
"CH01112","Junction","Chavornay","46.7100845","6.5681632"
"CH15317","Junction","Chavornay Sud (bif)","46.7088462","6.5678646"
"CH04013","Junction","Chexbres-Village","46.4810572","6.7785378"
"CH01020","Junction","Chambésy","46.2409449","6.1473043"
"CH00107","Junction","Choindez","47.3240182","7.3758547"
"CH01203","Junction","Clarens","46.4427383","6.8957799"
"CH05211","Junction","Claro","46.2531781","9.0170467"
"CH04209","Junction","Colombier NE","46.9676524","6.8488697"
"CH04123","Junction","Corcelles-Nord","46.8352621","6.9602945"
"CH04306","Junction","Cortébert","47.1893371","7.1073092"
"CH04305","Junction","Corgémont","47.1933988","7.1446615"
"CH01007","Junction","Vernier","46.2207187","6.0938917"
"CH04317","Junction","Le Locle-Col-des-Roches","47.0498856","6.7260709"
"CH01023","Junction","Coppet","46.3173936","6.1878274"
"CH00266","Junction","Corcelles BE","47.2856654","7.4504631"
"CH04308","Junction","Cormoret","47.1729471","7.0541236"
"CH04223","Junction","Cornaux NE","47.038572","7.0233657"
"CH04040","Junction","Corseaux-Cornalles","46.4704514","6.8247808"
"CH01115","Junction","Cossonay-Penthalaz","46.6060101","6.5236892"
"CH03124","Junction","Aathal","47.3359591","8.7656251"
"CH04026","Junction","Cottens FR","46.7512126","7.0347943"
"CH04339","Junction","Cottendart (embr)","46.9712879","6.845696"
"CH04136","Junction","Cousset","46.8186049","6.9774911"
"CH04232","Junction","Corcelles-Peseux","46.983351","6.8838136"
"CH01106","Junction","Croy-Romainmôtier","46.6967123","6.4781163"
"CH01017","Junction","Crans VD","46.3587498","6.2124642"
"CH00267","Junction","Crémines","47.2856083","7.4354773"
"CH04315","Junction","Le Crêt-du-Locle","47.0772327","6.7845813"
"CH01012","Junction","Creux-de-Genthod","46.2637678","6.1613123"
"CH04224","Junction","Cressier NE","47.0519528","7.0395321"
"CH19440","Junction","Tunnel des Crêtes (diag)","46.4438374","6.8888671"
"CH04135","Junction","Corcelles-Sud","46.8288474","6.9571922"
"CH00104","Junction","Court","47.2406009","7.3421099"
"CH00127","Junction","Courtemaîche","47.4558692","7.0553802"
"CH00120","Junction","Courtételle","47.342829","7.3179428"
"CH04307","Junction","Courtelary","47.1756315","7.0688033"
"CH01124","Junction","Cully","46.4885618","6.7271515"
"CH04238","Junction","Convers","47.0840239","6.8646654"
"CH04010","Junction","La Conversion","46.5130845","6.6783236"
"CH04214","Junction","Couvet CFF","46.930382","6.634017"
"CH06049","Junction","Dachsen","47.6670905","8.6138227"
"CH07494","Junction","Därligen","46.6597644","7.8147374"
"CH02108","Junction","Dättwil","47.4496805","8.290929"
"CH02004","Junction","Dagmersellen","47.2175579","7.9790259"
"CH15319","Junction","Daillens (bif)","46.6374981","6.5464285"
"CH01146","Junction","Daillens","46.6322813","6.5424786"
"CH01104","Junction","Le Day","46.7200315","6.3990238"
"CH15320","Junction","Le Day Sud (bif)","46.7184977","6.4000624"
"CH01045","Junction","Denges-Echandens","46.5291271","6.5405055"
"CH15322","Junction","Denges A (bif)","46.5295508","6.5418113"
"CH15323","Junction","Denges B (bif)","46.5307685","6.5443417"
"CH00226","Junction","Derendingen","47.2025051","7.582109"
"CH04231","Junction","Les Deurres","46.9855247","6.8991484"
"CH06292","Junction","Degersheim","47.3725781","9.2001196"
"CH03315","Junction","Dielsdorf","47.4824205","8.4594438"
"CH06021","Junction","Dinhard","47.5533451","8.7529809"
"CH02111","Junction","Däniken SO","47.3563901","7.9787713"
"CH00109","Junction","Delémont","47.3620127","7.3500633"
"CH15324","Junction","Delémont Est","47.3627586","7.3546713"
"CH00209","Junction","Deitingen","47.2182258","7.618913"
"CH03501","Junction","Döttingen","47.5752698","8.2563647"
"CH04125","Junction","Domdidier","46.8685121","7.0113826"
"CH00220","Junction","Dotzigen","47.1186718","7.3377543"
"CH04124","Junction","Dompierre FR","46.8544028","6.9853688"
"CH08214","Junction","Doppleschwand-Romoos","47.0282593","8.0676476"
"CH00118","Junction","Dornach-Arlesheim","47.4886198","7.6111189"
"CH03337","Junction","Dorfnest (Abzw)","47.443378","8.6095698"
"CH00343","Junction","Dossenboden (Spw)","47.5627749","7.8730818"
"CH02212","Junction","Dottikon-Dintikon","47.3736466","8.2347103"
"CH07295","Junction","Därstetten","46.6587188","7.4956915"
"CH03237","Junction","Diesbach-Betschwanden","46.9461808","9.0243734"
"CH06202","Junction","Dietfurt","47.3445519","9.0783203"
"CH03306","Junction","Dietlikon","47.4202021","8.6192764"
"CH08289","Junction","Dietlikon Nord (Vzw)","47.422087","8.6205755"
"CH10457","Junction","Dietlikon Süd-West (Abzw)","47.418276","8.6184131"
"CH02110","Junction","Dulliken","47.3542761","7.9465013"
"CH03128","Junction","Dübendorf","47.4000804","8.6234217"
"CH04101","Junction","Düdingen","46.8510525","7.1897532"
"CH00116","Junction","Duggingen","47.4534449","7.6034607"
"CH09428","Junction","Duggingen Nord (Ausw)","47.4562474","7.6075582"
"CH07471","Junction","Eggerberg","46.3065463","7.8810327"
"CH02200","Junction","Ebikon","47.0842627","8.3423583"
"CH07296","Junction","Erlenbach im Simmental","46.6590918","7.5552352"
"CH02021","Junction","Emmenbrücke","47.0706015","8.2825654"
"CH01114","Junction","Eclépens","46.6571907","6.5524211"
"CH03231","Junction","Ennenda","47.0329595","9.0771938"
"CH03305","Junction","Effretikon","47.4258121","8.6866791"
"CH00307","Junction","Effingen","47.4765572","8.1006831"
"CH00214","Junction","Egerkingen","47.3148648","7.7989665"
"CH03402","Junction","Eglisau","47.5723745","8.516558"
"CH06309","Junction","Egnach","47.5439913","9.3830175"
"CH05142","Junction","Eggwald (Spw)","46.6986772","8.5939049"
"CH00304","Junction","Eiken","47.5330443","7.9897976"
"CH07288","Junction","Eifeld","46.6838688","7.6422731"
"CH07486","Junction","Einigen (Spw)","46.7111355","7.6394481"
"CH03510","Junction","Einfang (Abzw)","47.3988326","8.4625617"
"CH03283","Junction","Einsiedeln","47.1285817","8.7444777"
"CH16196","Junction","Einsiedeln Gleisende","47.1279071","8.7441126"
"CH06297","Junction","Ebnat-Kappel","47.2636664","9.1209875"
"CH10778","Junction","Ebnat-Kappel Süd","47.2619148","9.121712"
"CH06014","Junction","Elgg","47.4985291","8.8634116"
"CH06041","Junction","Embrach-Rorbas","47.5205902","8.5870688"
"CH08206","Junction","Emmenmatt","46.9481541","7.7472948"
"CH07284","Junction","Enge im Simmental","46.6475332","7.4176244"
"CH08213","Junction","Entlebuch","46.9936934","8.0623643"
"CH01110","Junction","Ependes VD","46.7464161","6.6076619"
"CH01125","Junction","Epesses","46.4893288","6.745166"
"CH05114","Junction","Erstfeld","46.8203394","8.6504546"
"CH06107","Junction","Erlen","47.5514603","9.226202"
"CH06133","Junction","Ermatingen","47.6699992","9.0856725"
"CH16699","Junction","Erstfeld Nord (Abzw)","46.8261133","8.6476658"
"CH02022","Junction","Eschenbach LU","47.132396","8.3227907"
"CH08210","Junction","Escholzmatt","46.9153482","7.936378"
"CH02019","Junction","Ermensee","47.2296906","8.2423144"
"CH06011","Junction","Eschlikon TG","47.4614911","8.9585362"
"CH01111","Junction","Essert-Pittet","46.7276733","6.5806558"
"CH03044","Junction","RBL A-Gruppe","47.4136569","8.3963647"
"CH03043","Junction","RBL Depot","47.4124002","8.3971372"
"CH02013","Junction","Aarburg-Oftringen Süd (Abzw)","47.3135511","7.916919"
"CH05247","Junction","Al Motto (c bin)","46.145044","8.9427791"
"CH15373","Junction","Al Motto Est","46.1439968","8.9491519"
"CH06319","Junction","Altstätten SG","47.3742348","9.5565199"
"CH03211","Junction","Altendorf","47.1939671","8.8229058"
"CH06308","Junction","Arbon","47.5105877","9.4333586"
"CH15301","Junction","Archy A (bif)","46.5434936","6.5637717"
"CH02143","Junction","Däniken Ost","47.3584786","7.9835189"
"CH16159","Junction","Däniken RB","47.3534203","7.9712854"
"CH00129","Junction","Delle-Frontière","47.502801","7.0128737"
"CH04132","Junction","Estavayer-le-Lac","46.8444989","6.8429672"
"CH01042","Junction","Etoy","46.4751727","6.4271354"
"CH01404","Junction","Evionnaz","46.1692544","7.0255182"
"CH03034","Junction","RBL E-Gruppe","47.4270949","8.3700045"
"CH01425","Junction","Les Evouettes","46.362867","6.8794702"
"CH03549","Junction","RBL R-Gruppe","47.4200056","8.3845512"
"CH08143","Junction","Rothrist West (Abzw)","47.3016072","7.8660688"
"CH08141","Junction","Aarburg-Oftringen West (Abzw)","47.3136469","7.9068718"
"CH10284","Junction","Allmendingen BE (Verzw)","46.9224672","7.5264919"
"CH01505","Junction","Ardon","46.2085942","7.2709468"
"CH06211","Junction","Arnegg","47.4420016","9.252025"
"CH03205","Junction","Au ZH","47.2468179","8.6437259"
"CH06316","Junction","Au SG","47.4361158","9.6412591"
"CH04219","Junction","Auvernier","46.9796417","6.877708"
"CH01632","Junction","Avry-Matran","46.7860302","7.0804346"
"CH06109","Junction","Amriswil","47.5504497","9.3022272"
"CH02206","Junction","Baar","47.195364","8.5232715"
"CH03208","Junction","Bäch SZ","47.2009816","8.7271743"
"CH06025","Junction","Etzwilen","47.6611447","8.8186173"
"CH15443","Junction","Etzwilen West (Abzw)","47.6605651","8.8153564"
"CH06138","Junction","Eschenz","47.6454121","8.8765617"
"CH00324","Junction","Etzgen","47.5724755","8.1042307"
"CH05204","Junction","Faido","46.4830755","8.7907101"
"CH03109","Junction","Feldbach","47.2392036","8.7834978"
"CH06101","Junction","Felben-Wellhausen","47.5771021","8.9431748"
"CH03302","Junction","Fehraltorf","47.3851228","8.7502881"
"CH18251","Junction","Feldmeilen Wendeanlage","47.2773482","8.6210638"
"CH06100","Junction","Frauenfeld","47.5581634","8.8965597"
"CH04127","Junction","Faoug","46.9083104","7.0745462"
"CH03136","Junction","Fischenthal","47.3333027","8.9232959"
"CH05112","Junction","Flüelen","46.9017302","8.6243027"
"CH06209","Junction","Flawil","47.4151894","9.1897856"
"CH04103","Junction","Flamatt","46.8884914","7.3195708"
"CH04191","Junction","Flamatt Dorf","46.8899068","7.3105245"
"CH05043","Junction","Fluhmühle (Abzw)","47.0566007","8.2868476"
"CH02622","Junction","Fontenette (Point de rebrouss)","46.1826746","6.1504912"
"CH01016","Junction","Founex","46.3287836","6.1943834"
"CH07478","Junction","Frutigen","46.5889075","7.6514183"
"CH04401","Junction","Fräschels","46.9991261","7.2060401"
"CH03210","Junction","Freienbach SBB","47.2073107","8.7562186"
"CH03289","Junction","Freienbach SOB","47.2042037","8.759399"
"CH04100","Junction","Fribourg/Freiburg","46.8031482","7.1510469"
"CH04301","Junction","Frinvillier-Taubenloch","47.1694578","7.2575293"
"CH19133","Junction","Fribourg/Freiburg Poya","46.8155796","7.1564859"
"CH17374","Junction","Frutigen Süd (Abzw)","46.582949","7.6501049"
"CH07496","Junction","Faulensee","46.6737555","7.6979149"
"CH18324","Junction","Faido SMF Nord","46.5019872","8.8075152"
"CH18325","Junction","Faido SMF Süd","46.493947","8.8147336"
"CH03425","Junction","Feuerthalen","47.6921695","8.6459684"
"CH01028","Junction","Furet (bif)","46.2087542","6.115516"
"CH16855","Junction","Fürten (Spw)","46.5399484","7.6705998"
"CH01603","Junction","Gampel-Steg","46.3065155","7.7475812"
"CH07285","Junction","Galgenbühl (Agl)","46.5703811","7.3782181"
"CH00265","Junction","Gänsbrunnen","47.2656525","7.4649157"
"CH00112","Junction","Bärschwil","47.4007867","7.4769142"
"CH05306","Junction","Balerna","45.8467451","9.0050356"
"CH19645","Junction","Baltenswil (Abzw)","47.43257","8.64375"
"CH05347","Junction","Balerna per Smistamento (bif)","45.8491527","9.0000033"
"CH06205","Junction","Bazenheid","47.4101265","9.0690598"
"CH06224","Junction","Bazenheid MICARNA (Abzw)","47.4147851","9.0709513"
"CH06223","Junction","Bazenheid ZAB (Agl)","47.4187932","9.0727596"
"CH00128","Junction","Boncourt","47.4926319","7.0165518"
"CH08083","Junction","Burgdorf Buchmatt","47.065458","7.608276"
"CH08081","Junction","Burgdorf Steinhof","47.0511999","7.6195394"
"CH15377","Junction","Burgdorf West (Abzw)","47.0611177","7.6163133"
"CH02109","Junction","Baden Oberstadt","47.4696307","8.3042943"
"CH01606","Junction","Gamsen SBB","46.3038645","7.9402673"
"CH07085","Junction","Gasel","46.900928","7.4006919"
"CH05004","Junction","Arth-Goldau","47.0490449","8.5494463"
"CH05402","Junction","Gordola","46.1790403","8.8657733"
"CH01021","Junction","Genthod-Bellevue","46.2567377","6.1539608"
"CH15396","Junction","Arth-Goldau Nordwest","47.049258","8.5495567"
"CH04208","Junction","Boudry","46.9594571","6.8350476"
"CH05213","Junction","Bellinzona","46.1954318","9.0295185"
"CH00205","Junction","Bellach","47.2088788","7.5078254"
"CH06135","Junction","Berlingen","47.6732138","9.022023"
"CH06194","Junction","Berg","47.58225","9.1745277"
"CH00203","Junction","Bettlach","47.1949494","7.428373"
"CH01402","Junction","Bex","46.2514646","7.0006699"
"CH04139","Junction","Belfaux CFF","46.8169246","7.1062301"
"CH04416","Junction","Brügg BE","47.1236395","7.278222"
"CH15397","Junction","Arth-Goldau Ost (Abzw)","47.0486679","8.5553492"
"CH01008","Junction","Genève","46.2102129","6.1424516"
"CH15329","Junction","Genève-Aéroport (cul-de-sac)","46.2352666","6.1157772"
"CH01026","Junction","Genève-Aéroport","46.2325385","6.1119856"
"CH04236","Junction","Les Geneveys-sur-Coffrane","47.0150964","6.8532176"
"CH01010","Junction","Genève faisceau B","46.2157778","6.1442702"
"CH02026","Junction","Gelfingen","47.213559","8.2648249"
"CH15399","Junction","Gellert Nord (Abzw)","47.5568225","7.6152813"
"CH15400","Junction","Gellert West (Abzw)","47.5459926","7.6080531"
"CH17141","Junction","Genève-La-Praille (bif)","46.1786793","6.124969"
"CH16283","Junction","Genève-Sécheron","46.2224403","6.1445612"
"CH16174","Junction","Genève-Stade","46.1767136","6.1260818"
"CH17419","Junction","Gettnau Güteranlage","47.1403659","7.984354"
"CH16273","Junction","Genève-Eaux-Vives","46.2014454","6.1665696"
"CH02133","Junction","Gexi","47.3925294","8.1926418"
"CH15462","Junction","Regensdorf West (Abzw)","47.4441507","8.4578154"
"CH15463","Junction","Romanshorn Feld H (Abzw)","47.5618705","9.378993"
"CH03287","Junction","Burghalden","47.2086739","8.6927191"
"CH06106","Junction","Bürglen TG","47.5490984","9.1498766"
"CH00341","Junction","Brugg AG Nord (Abzw)","47.4815636","8.1977824"
"CH00342","Junction","Brugg AG Süd (Abzw)","47.4719778","8.2080995"
"CH07287","Junction","Burgholz","46.6657511","7.6032293"
"CH05209","Junction","Biasca","46.3519842","8.9741792"
"CH15304","Junction","Biel/Bienne Aebistrasse","47.1306498","7.2490096"
"CH15439","Junction","Chur West (Gleisende)","46.8506111","9.5164746"
"CH15440","Junction","Dietlikon Süd (Abzw)","47.4173522","8.6178554"
"CH15401","Junction","Gexi Ost (Abzw)","47.3928963","8.1952384"
"CH03401","Junction","Glattfelden","47.548558","8.5240552"
"CH08260","Junction","Grosshöchstetten","46.9046314","7.6349189"
"CH01032","Junction","Gilly-Bursinel","46.4450682","6.3063633"
"CH05206","Junction","Giornico","46.4026451","8.8721332"
"CH05245","Junction","Giornico (c bin)","46.4069795","8.8691876"
"CH01437","Junction","Monthey Giovanola (embr)","46.2649998","6.9496293"
"CH05214","Junction","Giubiasco","46.1738127","9.0036001"
"CH15975","Junction","Giubiasco Ovest","46.1667539","8.9912755"
"CH15402","Junction","Giubiasco Sud (bif)","46.172023","9.0004466"
"CH04181","Junction","Givisiez","46.816756","7.1299615"
"CH05943","Junction","Givisiez Ouest","46.8167576","7.1196835"
"CH03230","Junction","Glarus","47.0399241","9.0715664"
"CH01031","Junction","Gland","46.4199865","6.2691398"
"CH15629","Junction","Thun (Abzw)","46.760132","7.621223"
"CH15628","Junction","Thun GB","46.7564941","7.6266674"
"CH15763","Junction","Zürich Altstetten Nord (Abzw)","47.3897145","8.4996738"
"CH16022","Junction","Bifang AG (Spw)","47.3108702","7.8958579"
"CH03284","Junction","Biberbrugg","47.1563786","8.7227147"
"CH15305","Junction","Biel/Bienne Depot Ost","47.1308853","7.2583761"
"CH08261","Junction","Biglen","46.9246174","7.6267029"
"CH08263","Junction","Bigenthal","46.9653981","7.6233747"
"CH03290","Junction","Biberegg","47.0933195","8.6691413"
"CH16703","Junction","Buchs SG RB","47.1757141","9.4770276"
"CH15977","Junction","Camorino Nord","46.1585963","8.9858062"
"CH15330","Junction","Genève-La-Praille (cul-de-sac)","46.1859709","6.1311583"
"CH01038","Junction","Genève Poste 1","46.2175771","6.1443653"
"CH01009","Junction","Genève-La-Praille","46.1830963","6.1256813"
"CH05410","Junction","Gerra (Gambarogno)","46.122041","8.7849698"
"CH03310","Junction","Glattbrugg","47.4308267","8.5588541"
"CH08088","Junction","Gerlafingen","47.1705629","7.5652894"
"CH17522","Junction","Biel Madretsch","47.1375136","7.2528265"
"CH15002","Junction","Biel/Bienne IW","47.1411936","7.2609299"
"CH03224","Junction","Bilten","47.1521929","9.0299183"
"CH04419","Junction","Biel Mett","47.1447253","7.2724873"
"CH15307","Junction","Biel/Bienne Ost","47.1366595","7.2592411"
"CH02221","Junction","Birmensdorf ZH","47.3574314","8.4375551"
"CH03137","Junction","Gibswil","47.3137201","8.9155106"
"CH00123","Junction","Glovelier","47.3352095","7.2093128"
"CH15331","Junction","Glovelier Ouest","47.3365296","7.2061025"
"CH03512","Junction","Glanzenberg","47.3988787","8.4204419"
"CH04122","Junction","Granges-Marnand","46.7588449","6.8942897"
"CH04486","Junction","Gümmenen","46.9421822","7.2344094"
"CH02131","Junction","Gruemet (Abzw)","47.4268103","8.2686845"
"CH00159","Junction","Grenchen Nord","47.1916982","7.3896187"
"CH07474","Junction","Goppenstein","46.3677072","7.7549213"
"CH05119","Junction","Göschenen","46.6658149","8.5888082"
"CH06305","Junction","Goldach","47.4737982","9.4669969"
"CH04205","Junction","Gorgier-St-Aubin","46.8990761","6.781026"
"CH16452","Junction","Goppenstein Lötschberg (Spw)","46.3789475","7.7468212"
"CH05141","Junction","Gotthard Nord (Spw)","46.6216185","8.5928573"
"CH04482","Junction","Gampelen","47.0093636","7.0564423"
"CH00143","Junction","Grandgourt","47.4699201","7.0481077"
"CH01508","Junction","Granges-Lens","46.2655804","7.4587282"
"CH00115","Junction","Grellingen","47.4412949","7.5919884"
"CH03293","Junction","Grüenfeld","47.1982953","8.6872888"
"CH18217","Junction","S. Antonino (dira)","46.1613198","8.9763038"
"CH18339","Junction","Soyhières Est","47.3896725","7.3753796"
"CH00117","Junction","Aesch BL","47.4677447","7.6030682"
"CH01435","Junction","Monthey Agip (embr)","46.288697","6.93594"
"CH06199","Junction","Altishausen","47.5964883","9.1623771"
"CH01400","Junction","Aigle","46.3168554","6.9636832"
"CH04341","Junction","Biel/Bienne Blumenrain","47.1386763","7.2609976"
"CH08089","Junction","Biberist Ost","47.1806019","7.5661909"
"CH15308","Junction","Biel/Bienne West","47.1337457","7.2393427"
"CH19694","Junction","En Grillon (diag)","46.474329","6.7786727"
"CH04138","Junction","Grolley","46.8319789","7.0660525"
"CH04201","Junction","Grandson","46.8062834","6.6419437"
"CH16854","Junction","Grubi (Spw)","46.5296751","7.6707894"
"CH07281","Junction","Grubenwald","46.5798106","7.3829688"
"CH05140","Junction","Gruonbach (Spw)","46.9138092","8.6225064"
"CH04011","Junction","Grandvaux","46.4969482","6.7226502"
"CH09427","Junction","Grellingen West (Spw)","47.4386071","7.5718892"
"CH00202","Junction","Grenchen Süd","47.1887747","7.3981801"
"CH02028","Junction","Emmenbrücke Gersag","47.0783142","8.2768201"
"CH06395","Junction","Häggenschwil-Winden","47.5038633","9.3587226"
"CH03212","Junction","Hafen Bäch (Spw)","47.200729","8.718852"
"CH09403","Junction","Haag-Gams","47.2073497","9.478867"
"CH08212","Junction","Hasle LU","46.9781517","8.0469818"
"CH16408","Junction","Pfäffikon SZ Nord (Abzw)","47.2121976","8.7977846"
"CH15165","Junction","Pfäffikon SZ Ost (Abzw)","47.2028674","8.7856953"
"CH15466","Junction","Rapperswil Ost (Abzw)","47.2253594","8.8242242"
"CH00144","Junction","Buix","47.4793333","7.0299673"
"CH16766","Junction","Bern Wankdorf Süd","46.9669459","7.4658103"
"CH04213","Junction","Boveresse","46.9190139","6.5954091"
"CH08204","Junction","Bowil","46.9000482","7.6980535"
"CH18171","Junction","Boniswil Nord (Km-Sprung)","47.3210006","8.1819004"
"CH07076","Junction","Belp","46.8888833","7.4986357"
"CH05032","Junction","Hagnau (Abzw)","47.5415319","7.6230309"
"CH03428","Junction","Diessenhofen","47.6854682","8.7522994"
"CH03508","Junction","Dietikon","47.4057838","8.4049882"
"CH15327","Junction","Eclépens Nord (bif)","46.6587775","6.5519022"
"CH04018","Junction","Ecublens-Rue","46.6104302","6.811055"
"CH00328","Junction","Felsenau AG","47.6055699","8.2211832"
"CH07468","Junction","Felsenburg","46.5315384","7.6757462"
"CH04485","Junction","Ferenbalm-Gurbrü","46.9540565","7.2188673"
"CH00305","Junction","Frick","47.5073485","8.0130925"
"CH00327","Junction","Full","47.6094052","8.1969804"
"CH02201","Junction","Gisikon-Root","47.1213277","8.3947885"
"CH06210","Junction","Gossau SG","47.4118316","9.2530507"
"CH07003","Junction","Gümligen","46.9343219","7.5055048"
"CH08008","Junction","Herzogenbuchsee","47.1880861","7.7009583"
"CH08003","Junction","Hindelbank","47.0495638","7.5454106"
"CH08043","Junction","Herzogenbuchsee Nord (Ge)","47.1969609","7.6951117"
"CH00029","Junction","Hauenstein Nord (Spw)","47.4175143","7.8990281"
"CH00247","Junction","Hauenstein Süd (Spw)","47.3947099","7.9072886"
"CH02031","Junction","Hallwil","47.3286388","8.1759495"
"CH02211","Junction","Hendschiken","47.3894311","8.2073887"
"CH15403","Junction","Hendschiken Nord (Abzw)","47.3911715","8.2055213"
"CH06290","Junction","Herisau","47.3901652","9.2768122"
"CH06317","Junction","Heerbrugg","47.4103925","9.6272488"
"CH02223","Junction","Hedingen","47.2987852","8.4459656"
"CH15422","Junction","Pratteln West","47.5256274","7.6720404"
"CH03041","Junction","RBL Kopf Killwangen","47.4293895","8.3643052"
"CH03544","Junction","RBL L-Gruppe","47.4160893","8.3937315"
"CH03542","Junction","RBL Ost","47.4152477","8.3899794"
"CH03048","Junction","RBL U-Gruppe","47.4250873","8.3768879"
"CH15483","Junction","Wil Süd (Abzw)","47.4523008","9.0433734"
"CH09419","Junction","Weesen","47.129921","9.0947105"
"CH15484","Junction","Winterthur Nord","47.5031248","8.7258463"
"CH15271","Junction","Wöschnau Tunnel","47.3879362","8.0383191"
"CH15433","Junction","Wohlen Nord (Abzw)","47.3513909","8.2655525"
"CH17119","Junction","Hedingen Nord (Abzw)","47.3082732","8.4500233"
"CH04141","Junction","Henniez","46.7350014","6.8701059"
"CH06045","Junction","Hettlingen","47.5454414","8.6948342"
"CH07482","Junction","Heustrich-Emdthal","46.652212","7.6847577"
"CH03204","Junction","Horgen","47.2614834","8.596917"
"CH02208","Junction","Horgen Oberdorf","47.2587498","8.5898158"
"CH06046","Junction","Henggart","47.5642572","8.6850752"
"CH04237","Junction","Les Hauts-Geneveys","47.0471766","6.8746731"
"CH03130","Junction","Hinwil","47.300057","8.8397199"
"CH02027","Junction","Hitzkirch","47.2226727","8.252001"
"CH06102","Junction","Hüttlingen-Mettendorf","47.5823436","8.974555"
"CH08253","Junction","Heimberg","46.7908737","7.6061307"
"CH06307","Junction","Horn","47.49318","9.4633879"
"CH00306","Junction","Hornussen","47.497337","8.059877"
"CH02024","Junction","Hochdorf","47.1669752","8.2886996"
"CH02128","Junction","Holderbank AG","47.4286425","8.1666224"
"CH07080","Junction","Bern Holligen","46.9464638","7.4090499"
"CH07398","Junction","Hondrich Süd","46.6696951","7.670184"
"CH02042","Junction","Hochdorf Schönau","47.1645693","8.2987336"
"CH06212","Junction","Hauptwil","47.4768666","9.2515915"
"CH03038","Junction","Hard Käferberg (Abzw)","47.3915285","8.5114465"
"CH08000","Junction","Hardfeld (Spw)","47.037787","7.5279469"
"CH00232","Junction","Härkingen Post","47.3216142","7.8184598"
"CH07473","Junction","Hohtenn","46.3224588","7.7640869"
"CH02104","Junction","Hunzenschwil","47.3882859","8.1256932"
"CH02306","Junction","Hünenberg Chämleten","47.1691594","8.4499085"
"CH08292","Junction","Hüswil","47.1285743","7.905863"
"CH03338","Junction","Hürlistein (Abzw)","47.422451","8.66343"
"CH03403","Junction","Hüntwangen-Wil","47.5812689","8.512848"
"CH03299","Junction","Hurden","47.2141463","8.8007457"
"CH18271","Junction","Hürlistein Ost","47.4216361","8.6695304"
"CH18270","Junction","Hürlistein West","47.4244334","8.6492741"
"CH08187","Junction","Huttwil","47.11449","7.8426077"
"CH03303","Junction","Illnau","47.4088192","8.7227275"
"CH05003","Junction","Immensee","47.0916187","8.462672"
"CH00263","Junction","Im Holz","47.2309208","7.4747949"
"CH06239","Junction","Gossau-Sommerau (Agl)","47.420089","9.2406579"
"CH05041","Junction","Gütsch (Abzw)","47.0516095","8.2970895"
"CH05117","Junction","Gurtnellen","46.7293535","8.6224762"
"CH08174","Junction","Gutenburg","47.1817909","7.7932913"
"CH07488","Junction","Gwatt","46.7254449","7.6200903"
"CH04129","Junction","Galmiz","46.9508706","7.1532073"
"CH08265","Junction","Hasle-Rüegsau","47.0162628","7.6553224"
"CH00215","Junction","Hägendorf","47.3302678","7.8438164"
"CH15405","Junction","Immensee West (Abzw)","47.0933511","8.4604234"
"CH16770","Junction","Inkwil (Verzw)","47.1954897","7.6647044"
"CH04483","Junction","Ins","46.9998314","7.099561"
"CH07492","Junction","Interlaken Ost","46.6905104","7.8690158"
"CH01952","Junction","Iselle di Trasquera","46.2070086","8.2070141"
"CH06019","Junction","Islikon","47.5478349","8.846197"
"CH00025","Junction","Itingen","47.4672787","7.787226"
"CH07493","Junction","Interlaken West","46.682628","7.8514531"
"CH03421","Junction","Jestetten","47.6544018","8.5733"
"CH07012","Junction","Bern JKLM","46.9482429","7.4288947"
"CH03120","Junction","Jona","47.2309766","8.8346181"
"CH01041","Junction","Jonction (Genève)","46.2018268","6.1208565"
"CH10681","Junction","Pregny (bif)","46.2309801","6.1456648"
"CH08333","Junction","Tössmühle Steigbach (Vzw)","47.4788163","8.7065317"
"CH19695","Junction","Vernex (diag)","46.440252","6.9051719"
"CH01302","Junction","Veytaux-Chillon","46.4176212","6.9278608"
"CH01303","Junction","Villeneuve VD","46.3983715","6.9270031"
"CH01200","Junction","Vevey","46.4630018","6.8434456"
"CH06000","Junction","Winterthur","47.5003338","8.7238211"
"CH09414","Junction","Walenstadt","47.1198736","9.3129815"
"CH07475","Junction","Kandersteg","46.4953967","7.6714126"
"CH03413","Junction","Kaiserstuhl AG","47.5664467","8.4191625"
"CH03117","Junction","Kaltbrunn","47.2179832","9.022431"
"CH03399","Junction","Kaltenboden (Agl)","47.1685526","8.7237182"
"CH04402","Junction","Kallnach","47.0255234","7.2351965"
"CH00300","Junction","Kaiseraugst","47.5384957","7.7241355"
"CH00329","Junction","Koblenz","47.6003383","8.2270497"
"CH03411","Junction","Koblenz Dorf","47.6093861","8.2401639"
"CH00330","Junction","Koblenz Grenze","47.6091455","8.2342619"
"CH07074","Junction","Kaufdorf","46.8378868","7.5018567"
"CH08185","Junction","Kleindietwil","47.1463079","7.7909747"
"CH03304","Junction","Kemptthal","47.4528389","8.7055862"
"CH08202","Junction","Konolfingen","46.8807024","7.621367"
"CH07477","Junction","Kandergrund","46.5573983","7.6626788"
"CH06287","Junction","Gübsensee","47.3979021","9.3167971"
"CH06124","Junction","Güttingen","47.608753","9.2922431"
"CH06012","Junction","Guntershausen","47.4741214","8.9170321"
"CH00268","Junction","Grandval","47.2835889","7.4218821"
"CH02120","Junction","Küngoldingen","47.3021415","7.9417967"
"CH03141","Junction","Küsnacht Goldbach","47.3268567","8.5759642"
"CH07497","Junction","Krattighalde","46.6625624","7.7395421"
"CH06193","Junction","Kehlhof","47.5721872","9.1697794"
"CH07008","Junction","Kiesen","46.8189438","7.5755013"
"CH08084","Junction","Kirchberg-Alchenflüh","47.082901","7.5810659"
"CH03200","Junction","Kilchberg ZH","47.3244316","8.5480164"
"CH02101","Junction","Kölliken","47.3373002","8.0264605"
"CH02122","Junction","Kölliken Oberdorf","47.3246832","8.0190906"
"CH03308","Junction","Kloten","47.4486073","8.5838097"
"CH03309","Junction","Kloten Balsberg","47.4422904","8.5707185"
"CH16176","Junction","Klingnau","47.5815572","8.2502949"
"CH03506","Junction","Killwangen-Spreitenbach","47.4333289","8.354214"
"CH15450","Junction","Killwangen West (Abzw)","47.4352898","8.3496477"
"CH02230","Junction","Zug Chollermüli","47.1802376","8.4866457"
"CH03300","Junction","Kempten","47.3320431","8.8047207"
"CH02226","Junction","Knonau","47.2202643","8.4667312"
"CH07083","Junction","Köniz","46.9246066","7.4149121"
"CH16995","Junction","Köniz Waldegg (Agl)","46.9361089","7.4161867"
"CH06004","Junction","Kollbrunn","47.4583242","8.7740169"
"CH16744","Junction","Kollermühle (Abzw)","47.1810578","8.4838733"
"CH03112","Junction","Kempraten","47.2383977","8.814311"
"CH06131","Junction","Kreuzlingen","47.6525528","9.1690804"
"CH06216","Junction","Kradolf","47.5247224","9.2015751"
"CH06197","Junction","Kreuzlingen Bernrain","47.6421145","9.1632041"
"CH06128","Junction","Kreuzlingen Hafen","47.649164","9.1819823"
"CH06298","Junction","Krummenau","47.2488351","9.1681547"
"CH07077","Junction","Kehrsatz","46.908823","7.4723602"
"CH07093","Junction","Kehrsatz Nord","46.9158364","7.4661091"
"CH05002","Junction","Küssnacht am Rigi","47.0835942","8.4335175"
"CH06119","Junction","Kurzrickenbach Seepark","47.6430808","9.1963594"
"CH06123","Junction","Kesswil","47.5954978","9.3174273"
"CH04400","Junction","Kerzers","46.975079","7.1928102"
"CH16192","Junction","Kerzers BLS","46.9756538","7.1916839"
"CH16444","Junction","Kerzers Papiliorama","46.9897737","7.1992814"
"CH18338","Junction","Kerzers West (Abzw)","46.9736615","7.192089"
"CH03220","Junction","Lachen SZ","47.1900684","8.8527152"
"CH16281","Junction","Lancy-Bâtie (bif)","46.1898591","6.1251278"
"CH19217","Junction","La Clef","47.1465316","6.9843677"
"CH00261","Junction","Langendorf","47.2178615","7.5135854"
"CH08252","Junction","Lädeli","46.7816137","7.6090317"
"CH05219","Junction","Lamone-Cadempino","46.0397186","8.932125"
"CH02129","Junction","Langacher (Spw)","47.4375009","8.3330845"
"CH16155","Junction","Lancy-Pont-Rouge","46.1859453","6.124947"
"CH07299","Junction","Lattigen bei Spiez","46.6911413","7.6502689"
"CH05205","Junction","Lavorgo","46.4409017","8.8397474"
"CH02119","Junction","Lenzburg","47.3911998","8.1703929"
"CH04212","Junction","Les Bayards","46.9087403","6.5237396"
"CH07498","Junction","Leissigbad (Agl)","46.6560036","7.7530912"
"CH07091","Junction","Liebefeld","46.9300112","7.4189879"
"CH18791","Junction","Lenzburg Seetal","47.3906072","8.17105"
"CH15407","Junction","Lenzburg West (Abzw)","47.3926719","8.1659139"
"CH04313","Junction","Le Creux","47.0999348","6.8698849"
"CH04225","Junction","Le Landeron","47.0566364","7.0663353"
"CH88122","Junction","Landschlacht","47.6288914","9.2469487"
"CH00224","Junction","Leuzigen","47.1778562","7.4485851"
"CH04137","Junction","Léchelles","46.8284597","7.011627"
"CH01148","Junction","Lécheires (bif)","46.5347871","6.5508777"
"CH00326","Junction","Leibstadt","47.5932392","8.1655571"
"CH00201","Junction","Lengnau BE","47.1794314","7.3665537"
"CH06196","Junction","Lengwil","47.6255978","9.1902832"
"CH15335","Junction","Lengnau Ost (Abzw)","47.1809325","7.3704397"
"CH16446","Junction","Lerchenbühl (Verzw)","47.0590248","7.6112554"
"CH00035","Junction","Läufelfingen","47.3921329","7.8562316"
"CH00322","Junction","Laufenburg","47.5597684","8.0612961"
"CH00113","Junction","Laufen","47.4193465","7.5026361"
"CH05300","Junction","Lugano","46.0055006","8.9469953"
"CH03235","Junction","Leuggelbach","46.9757429","9.0469443"
"CH15408","Junction","Lugano Nord","46.0102281","8.9426543"
"CH05301","Junction","Lugano-Paradiso","45.9893726","8.9468898"
"CH04448","Junction","Löchligut Süd (Abzw)","46.9701712","7.4700657"
"CH04449","Junction","Löchligut (Abzw)","46.9805904","7.4659547"
"CH05345","Junction","Lugano Vedeggio","46.0200517","8.9177018"
"CH07088","Junction","Lanzenhäusern","46.8419311","7.347069"
"CH04303","Junction","La Heutte","47.1894918","7.2253958"
"CH08184","Junction","Lindenholz","47.1545632","7.7904693"
"CH04227","Junction","Ligerz","47.0837689","7.1351571"
"CH03239","Junction","Linthal","46.9255636","8.9977949"
"CH03240","Junction","Linthal Braunwaldbahn","46.9283958","9.0024914"
"CH15453","Junction","Linthal (Gleisende)","46.9226638","8.9949161"
"CH08219","Junction","Littau","47.0530643","8.257114"
"CH02242","Junction","Litti (Baar)","47.2089019","8.535797"
"CH01601","Junction","Leuk","46.3115795","7.6449365"
"CH18337","Junction","Leuk (KM-Sprung)","46.3079339","7.6582699"
"CH07470","Junction","Lalden","46.3010729","7.9095923"
"CH08207","Junction","Langnau i.E.","46.9392423","7.7841974"
"CH07090","Junction","Lerchenfeld","46.7675528","7.6057834"
"CH05400","Junction","Locarno","46.1724202","8.8013609"
"CH04316","Junction","Le Locle","47.057861","6.7461533"
"CH04319","Junction","Le Locle-Frontière","47.0502175","6.7169422"
"CH15670","Junction","Lötschen (Abzw)","46.3436384","7.7854718"
"CH04140","Junction","Muntelier-Löwenberg","46.9379742","7.1332615"
"CH03426","Junction","Langwiesen","47.683451","8.6623202"
"CH00262","Junction","Lommiswil","47.2185649","7.4695183"
"CH01048","Junction","Lonay-Préverenges","46.5231356","6.5195447"
"CH15336","Junction","Lonay A (bif)","46.5236125","6.5210153"
"CH15337","Junction","Lonay B (bif)","46.5248087","6.5243393"
"CH15410","Junction","Locarno (fine binario)","46.1724634","8.8004802"
"CH01438","Junction","Losinger (embr)","46.2431783","6.9824849"
"CH03420","Junction","Lottstetten","47.6257356","8.5668229"
"CH08182","Junction","Lotzwil","47.1894937","7.7885891"
"CH01001","Junction","La Plaine","46.1786654","5.9999928"
"CH01019","Junction","La Plaine-Frontière","46.1774396","5.9905812"
"CH04194","Junction","Laupen BE","46.9012925","7.2420152"
"CH09002","Junction","Landquart","46.9674404","9.5540447"
"CH01120","Junction","Lausanne","46.5167918","6.6290923"
"CH01108","Junction","La Sarraz","46.658785","6.517361"
"CH00111","Junction","Liesberg","47.3982053","7.4389853"
"CH01139","Junction","Lausanne (bif)","46.5208764","6.6160371"
"CH15633","Junction","Lichtensteig SOB","47.3196278","9.083353"
"CH15338","Junction","Lausanne Est","46.5141967","6.6344398"
"CH06201","Junction","Lichtensteig","47.3196966","9.0831888"
"CH15454","Junction","Lichtensteig Süd (Abzw)","47.3177107","9.0812053"
"CH00024","Junction","Lausen","47.4703447","7.7597628"
"CH07495","Junction","Leissigen","46.6551056","7.7750159"
"CH01128","Junction","Lausanne-Sébeillon","46.5242747","6.6110294"
"CH00023","Junction","Liestal","47.4844612","7.7313675"
"CH15272","Junction","Liestal Nord (Abzw)","47.4878823","7.726231"
"CH01049","Junction","Lausanne-Triage","46.5271547","6.5392969"
"CH01141","Junction","Lausanne-Triage A/B","46.529797","6.5439697"
"CH15339","Junction","Lausanne-Triage B","46.5280671","6.5393118"
"CH15340","Junction","Lausanne-Triage C","46.5308367","6.5450766"
"CH15341","Junction","Lausanne-Triage D","46.5324303","6.5476263"
"CH15639","Junction","Lausanne-Triage Est","46.5356833","6.5534743"
"CH01150","Junction","Lausanne-Triage F","46.5253115","6.5297065"
"CH08144","Junction","Langenthal GB","47.2147993","7.7700687"
"CH08100","Junction","Langenthal","47.2173029","7.7847151"
"CH08181","Junction","Langenthal Süd","47.2053381","7.7801922"
"CH18429","Junction","Lausanne-Triage K","46.5240411","6.5267248"
"CH01142","Junction","Lausanne-Triage Nord","46.5390274","6.556026"
"CH18430","Junction","Lausanne-Triage Ouest","46.5241567","6.5235722"
"CH15640","Junction","Lausanne-Triage P1","46.5257329","6.528113"
"CH01143","Junction","Lausanne-Triage Sud","46.5249825","6.5339943"
"CH15342","Junction","Lausanne-Triage sectionnement","46.5210675","6.5212965"
"CH01122","Junction","Lutry","46.5037868","6.6906094"
"CH03236","Junction","Luchsingen-Hätzingen","46.9650707","9.0390225"
"CH04121","Junction","Lucens","46.7077714","6.8421502"
"CH00225","Junction","Lüsslingen","47.1925078","7.4966008"
"CH06204","Junction","Lütisburg","47.3848263","9.0711005"
"CH08266","Junction","Lützelflüh-Goldbach","47.0050215","7.6822742"
"CH02237","Junction","Lupfig","47.4451842","8.2149899"
"CH00208","Junction","Luterbach-Attisholz","47.2171492","7.5835235"
"CH19129","Junction","Lussy FR","46.7092645","6.9385094"
"CH04009","Junction","Le Verney (embr)","46.4880008","6.7630683"
"CH04414","Junction","Lyss","47.0763235","7.3063015"
"CH18749","Junction","Lyss Grien","47.0726846","7.2965035"
"CH15343","Junction","Lyss Nord","47.0783454","7.3054505"
"CH08004","Junction","Lyssach","47.0637609","7.5813236"
"CH15344","Junction","Lyss West (Agl)","47.0792432","7.2985225"
"CH05000","Junction","Luzern","47.0501778","8.3101832"
"CH05045","Junction","Luzern Einfahrt (Abzw)","47.0446385","8.3098028"
"CH05009","Junction","Luzern Cargo","47.0476","8.31312"
"CH09028","Junction","Luzern Cargo Gleisende","47.0489143","8.3140383"
"CH17336","Junction","Luzern Verkehrshaus","47.0539323","8.3372973"
"CH01500","Junction","Martigny","46.1058312","7.0791241"
"CH04440","Junction","Madretsch","47.1274801","7.259435"
"CH08183","Junction","Madiswil","47.1670491","7.7957932"
"CH06184","Junction","Märwil","47.5331307","9.069239"
"CH02106","Junction","Mägenwil","47.4145082","8.2351552"
"CH03106","Junction","Männedorf","47.253424","8.6923461"
"CH06104","Junction","Märstetten","47.5828206","9.0621935"
"CH19042","Junction","Mägenwil West (Abzw)","47.413375","8.2307998"
"CH05406","Junction","Magadino-Vira","46.1453157","8.850189"
"CH03297","Junction","Eidg. Magazine","47.0542952","8.5712515"
"CH04343","Junction","Mahlenwald","47.1544144","7.2624567"
"CH08218","Junction","Malters","47.0385842","8.181972"
"CH06137","Junction","Mammern","47.6441602","8.9140006"
"CH07549","Junction","Mandement (diag)","46.2080205","6.0343052"
"CH06134","Junction","Mannenbach-Salenstein","47.6736495","9.0528041"
"CH05303","Junction","Maroggia-Melano","45.9324351","8.9739398"
"CH01420","Junction","Massongex","46.2412067","6.9856605"
"CH08002","Junction","Mattstetten (Km-Sprung)","47.0260956","7.5194681"
"CH08297","Junction","Menznau","47.0834272","8.0408874"
"CH00102","Junction","Malleray-Bévilard","47.2387142","7.2759463"
"CH04120","Junction","Moudon","46.6680573","6.8025079"
"CH05302","Junction","Melide","45.9557135","8.9483592"
"CH15722","Junction","Meder (Verzw)","47.6198883","8.6637314"
"CH05001","Junction","Meggen","47.0501478","8.3830614"
"CH05018","Junction","Meggen Zentrum","47.0451944","8.3743931"
"CH03215","Junction","Meilibach (Abzw)","47.2511916","8.6280759"
"CH02107","Junction","Mellingen","47.4298191","8.2737615"
"CH16219","Junction","Mellingen Heitersberg","47.4280751","8.2763633"
"CH03414","Junction","Mellikon","47.5684847","8.3525107"
"CH09412","Junction","Mels","47.0537463","9.4177583"
"CH05305","Junction","Mendrisio","45.8691086","8.9786109"
"CH15415","Junction","Mendrisio Sud (bif)","45.8654496","8.9742146"
"CH04481","Junction","Marin-Epagnier","47.0091069","7.0105948"
"CH05011","Junction","Merlischachen","47.06766","8.4090581"
"CH05217","Junction","Mezzovico","46.094276","8.9285903"
"CH05248","Junction","Mezzovico (c bin)","46.0849013","8.9227971"
"CH09003","Junction","Maienfeld","47.0038406","9.5292161"
"CH09417","Junction","Murg","47.1131749","9.2150419"
"CH08102","Junction","Murgenthal","47.2653813","7.8321059"
"CH18971","Junction","Mittalgrabentunnel Nord","46.3515239","7.7595062"
"CH18972","Junction","Mittalgrabentunnel Süd","46.3230618","7.7572704"
"CH09418","Junction","Mühlehorn","47.1178402","9.1730181"
"CH07087","Junction","Mittelhäusern","46.8764021","7.3677208"
"CH02215","Junction","Muri AG","47.2766662","8.3398207"
"CH01014","Junction","Mies","46.2984888","6.1676547"
"CH05417","Junction","Minusio","46.1740059","8.8195663"
"CH03232","Junction","Mitlödi","47.0101316","9.0812119"
"CH15668","Junction","Mitholz (Spw)","46.5168149","7.6572966"
"CH04484","Junction","Müntschemier","46.993323","7.1424389"
"CH04235","Junction","Montmollin-Montezillon","46.9913789","6.8428345"
"CH02029","Junction","Mosen","47.2442923","8.2241597"
"CH00302","Junction","Möhlin","47.5618585","7.8338627"
"CH06304","Junction","Mörschwil","47.4747715","9.4143835"
"CH06293","Junction","Mogelsberg","47.3637279","9.1420293"
"CH09415","Junction","Mols","47.1129907","9.2768166"
"CH07084","Junction","Moos","46.9099859","7.4010264"
"CH01037","Junction","Morges","46.5111012","6.4939695"
"CH00105","Junction","Moutier","47.2806725","7.3810443"
"CH00303","Junction","Mumpf","47.5476261","7.9096244"
"CH04007","Junction","Moreillon","46.5083981","6.7856454"
"CH04128","Junction","Murten/Morat","46.9253467","7.1152826"
"CH07006","Junction","Münsingen","46.8733542","7.5594424"
"CH06126","Junction","Münsterlingen-Scherzingen","47.6334266","9.2270118"
"CH06143","Junction","Münsterlingen Spital","47.6320461","9.2361169"
"CH00119","Junction","Münchenstein","47.5133974","7.6175967"
"CH01421","Junction","Monthey","46.2556565","6.9552267"
"CH06048","Junction","Marthalen","47.6313797","8.6560629"
"CH02225","Junction","Mettmenstetten","47.2440711","8.4573822"
"CH04029","Junction","Matran","46.7889384","7.0963286"
"CH00020","Junction","Muttenz","47.5335912","7.6478944"
"CH07481","Junction","Mülenen","46.638028","7.6913166"
"CH04411","Junction","Münchenbuchsee","47.0213758","7.4519477"
"CH02217","Junction","Mühlau","47.22502","8.388524"
"CH06103","Junction","Müllheim-Wigoltingen","47.5881646","9.0155221"
"CH04149","Junction","Muntelier","46.941214","7.1380422"
"CH07466","Junction","Mundbach (Spw)","46.3084838","7.9473501"
"CH06396","Junction","Muolen","47.5176244","9.337093"
"CH15984","Junction","Muttenz Ost (Abzw)","47.5307524","7.6568975"
"CH01029","Junction","Murat (diag)","46.3535824","6.2063498"
"CH01300","Junction","Montreux","46.4358843","6.9104401"
"CH03227","Junction","Näfels-Mollis","47.0987193","9.0699569"
"CH03126","Junction","Nänikon-Greifensee","47.3693629","8.6864136"
"CH00211","Junction","Niederbipp","47.2704017","7.6948181"
"CH03296","Junction","Neuberg","47.1523224","8.7456233"
"CH04492","Junction","Niederbottigen BN","46.9424988","7.3680261"
"CH04221","Junction","Neuchâtel","46.9967268","6.9357017"
"CH02005","Junction","Nebikon","47.1923806","7.9774495"
"CH15456","Junction","Neugut Ost bei DUE (Abzw)","47.404454","8.6048079"
"CH04242","Junction","Neuchâtel Est (bif)","47.0004876","6.9453522"
"CH04220","Junction","Neuchâtel-Serrières","46.9839623","6.9033627"
"CH03228","Junction","Netstal","47.064529","9.0594359"
"CH04240","Junction","Neuchâtel-Triage","46.9978279","6.9391442"
"CH04230","Junction","Neuchâtel-Vauseyon","46.9909002","6.9163819"
"CH04027","Junction","Neyruz FR","46.7660491","7.0650274"
"CH03313","Junction","Niederglatt ZH","47.487471","8.5033156"
"CH04192","Junction","Neuenegg","46.8941478","7.2998571"
"CH09422","Junction","Neugrüt (Verzw)","47.0880336","9.498194"
"CH03423","Junction","Neuhausen","47.6831334","8.6249345"
"CH03511","Junction","Neuenhof","47.4506642","8.3312553"
"CH18924","Junction","Neuhausen Rheinfall","47.6798049","8.6169465"
"CH03234","Junction","Nidfurn-Haslen","46.9858945","9.0592765"
"CH03328","Junction","Nidelbad (Abzw)","47.3122079","8.5412959"
"CH03329","Junction","Nidelbad Ost (Abzw)","47.3017672","8.5543539"
"CH03248","Junction","Nidelbad Süd (Abzw)","47.307051","8.5443463"
"CH03314","Junction","Niederhasli","47.4783309","8.4887074"
"CH06398","Junction","Neukirch-Egnach","47.5387981","9.3758533"
"CH06299","Junction","Nesslau-Neu St. Johann","47.2268262","9.197566"
"CH16197","Junction","Nesslau-Neu St. Joh. Gleisende","47.2256201","9.1988968"
"CH08269","Junction","Neumühle","46.965647","7.7493664"
"CH02008","Junction","Nottwil","47.1388117","8.138601"
"CH04216","Junction","Noiraigue","46.9549196","6.7217991"
"CH03226","Junction","Nieder- und Oberurnen","47.1223617","9.0623938"
"CH07086","Junction","Niederscherli","46.886437","7.3880701"
"CH04226","Junction","La Neuveville","47.0628328","7.0952324"
"CH03319","Junction","Niederweningen","47.5112006","8.3696306"
"CH04105","Junction","Niederwangen","46.9255071","7.3764635"
"CH03318","Junction","Niederweningen Dorf","47.5059137","8.3810735"
"CH15459","Junction","Niederweningen (Gleisende)","47.5120864","8.3672601"
"CH01030","Junction","Nyon","46.384419","6.2359661"
"CH15645","Junction","Nyon (bif)","46.3825617","6.2336527"
"CH06108","Junction","Oberaach","47.5533194","9.2710623"
"CH00213","Junction","Oberbuchsiten","47.3052472","7.7717238"
"CH08080","Junction","Oberburg","47.0396095","7.6293429"
"CH02011","Junction","Oberkirch LU","47.1552376","8.1142345"
"CH08255","Junction","Oberdiessbach","46.8392625","7.6178093"
"CH00264","Junction","Oberdorf SO","47.2358834","7.4936962"
"CH07297","Junction","Oey-Diemtigen","46.6598878","7.5791521"
"CH02102","Junction","Oberentfelden","47.3564864","8.0483871"
"CH00212","Junction","Oensingen","47.2850351","7.7098703"
"CH03528","Junction","Otelfingen","47.4549362","8.3875324"
"CH03525","Junction","Otelfingen Golfpark","47.4558216","8.4021135"
"CH03312","Junction","Oberglatt ZH","47.4702046","8.5106188"
"CH15349","Junction","Oberhard BE","47.0342343","7.5259156"
"CH02219","Junction","Oberrüti","47.1659262","8.4047795"
"CH07293","Junction","Oberwil im Simmental","46.6561356","7.4354833"
"CH00218","Junction","Olten","47.3519348","7.9076996"
"CH00217","Junction","Olten Hammer","47.3485552","7.897724"
"CH00243","Junction","Olten Nord (Abzw)","47.3649708","7.9180572"
"CH00244","Junction","Olten Ost (Abzw)","47.3586337","7.9256304"
"CH15418","Junction","Olten Süd (Abzw)","47.3456168","7.9076298"
"CH00241","Junction","Olten Tunnel (Spw)","47.3721849","7.9154448"
"CH08240","Junction","Obermatt","46.9509664","7.7538131"
"CH04202","Junction","Onnens-Bonvillars","46.8326406","6.6898589"
"CH03340","Junction","Opfikon","47.4299548","8.5617948"
"CH06185","Junction","Oppikon","47.5520643","9.0621034"
"CH03035","Junction","Opfikon Süd","47.4245717","8.5573522"
"CH04020","Junction","Oron","46.5725456","6.8371041"
"CH03203","Junction","Oberrieden","47.2796763","8.5784606"
"CH02209","Junction","Oberrieden Dorf","47.2767318","8.5776528"
"CH09400","Junction","Oberriet SG","47.3234832","9.571377"
"CH05210","Junction","Osogna-Cresciano","46.2992657","8.9941456"
"CH06023","Junction","Ossingen","47.614614","8.7241166"
"CH07002","Junction","Ostermundigen","46.9568024","7.4814979"
"CH02105","Junction","Othmarsingen","47.4074335","8.2148055"
"CH04117","Junction","Oberwangen","46.9145711","7.3621957"
"CH06016","Junction","Oberwinterthur","47.5079223","8.7603892"
"CH06037","Junction","Oberwinterthur Unterhaltanlage","47.5147998","8.7678202"
"CH04014","Junction","Palézieux","46.5427636","6.8378753"
"CH15350","Junction","Palézieux Est (bif)","46.5461818","6.8437249"
"CH04016","Junction","Palézieux-Village","46.5571132","6.8288745"
"CH05242","Junction","Pardorea (c bin)","46.4889788","8.7647487"
"CH04134","Junction","Payerne","46.81965","6.9398849"
"CH15351","Junction","Payerne Est (bif)","46.826996","6.9480402"
"CH01440","Junction","Les Paluds","46.2295693","7.0004231"
"CH01034","Junction","Perroy","46.4712319","6.3629923"
"CH03209","Junction","Pfäffikon SZ","47.2029974","8.7781298"
"CH05143","Junction","Pfaffensprung (Spw)","46.7155383","8.6089733"
"CH06042","Junction","Pfungen","47.5160384","8.6466339"
"CH03301","Junction","Pfäffikon ZH","47.3670862","8.7847997"
"CH05244","Junction","Pianotondo (c bin)","46.4207996","8.8609455"
"CH03042","Junction","RBL Kopf Zürich","47.4086059","8.4034427"
"CH15354","Junction","Renens VD Est (bif)","46.5332556","6.5870726"
"CH15355","Junction","Renens VD Ouest (bif)","46.5407883","6.572087"
"CH15423","Junction","Rivera-Bironico Nord","46.1283225","8.9234905"
"CH15464","Junction","Rorschach Ost (Abzw)","47.4781842","9.5134711"
"CH15465","Junction","Rüti ZH West (Abzw)","47.2615114","8.8500675"
"CH15424","Junction","Rupperswil Ost","47.406623","8.1397847"
"CH10283","Junction","Rüfenacht BE (Verzw)","46.925226","7.5304872"
"CH15487","Junction","Zürich Altstetten Ost (Abzw)","47.3905684","8.4950856"
"CH15488","Junction","Zürich Altstetten Süd (Abzw)","47.3906989","8.4924079"
"CH16652","Junction","Zürich Aubrugg (Vzw)","47.413127","8.5718004"
"CH15489","Junction","Ziegelbrücke Ost (Abzw)","47.1339092","9.0641251"
"CH15490","Junction","Ziegelbrücke West (Abzw)","47.1389016","9.0552592"
"CH15435","Junction","Zofingen Nord (Abzw)","47.2912212","7.9402772"
"CH15436","Junction","Zug Nord (Abzw)","47.1781278","8.5162853"
"CH15468","Junction","Sargans Nord","47.0448586","9.4463064"
"CH15469","Junction","Sargans Ost","47.0432061","9.4489498"
"CH15470","Junction","Sargans Schleife West (Abzw)","47.0401138","9.4541749"
"CH04118","Junction","Sévaz (embr)","46.8375485","6.8630409"
"CH06218","Junction","St. Gallen West (Abzw)","47.4163553","9.359501"
"CH04119","Junction","Siporex (embr)","46.840085","6.8567071"
"CH15426","Junction","Sisikon Nord","46.9537921","8.6203178"
"CH06314","Junction","St. Margrethen SG","47.453216","9.6382619"
"CH15471","Junction","St. Margrethen Ost (Abzw)","47.4519436","9.64538"
"CH15425","Junction","Solothurn RM (Abzw)","47.2036696","7.5407001"
"CH15473","Junction","Schaffhausen RB Ost (Ende SBB)","47.7151958","8.656854"
"CH18322","Junction","Sedrun SMF Nord","46.6709791","8.7684091"
"CH18323","Junction","Sedrun SMF Süd","46.6605868","8.7706976"
"CH19748","Junction","Sursee (Abzw)","47.1739678","8.0956856"
"CH06312","Junction","Staad SG","47.4805294","9.5344513"
"CH15364","Junction","St-Gingolph (Frontière)","46.3931841","6.8040604"
"CH15474","Junction","Stein-Säckingen Ost (Abzw)","47.5398619","7.954698"
"CH15431","Junction","Solothurn West (Abzw)","47.2080244","7.5296847"
"CH19693","Junction","Taillepied (diag)","46.5058404","6.6819055"
"CH15432","Junction","Taverne-Torricella Sud (bif)","46.0524563","8.9283726"
"CH15368","Junction","Unterhard BE","47.0352709","7.5259138"
"CH15369","Junction","Vevey Ouest (bif)","46.4676303","6.8361172"
"CH10557","Junction","Zürich Hottingen Süd (Abzw)","47.3667803","8.5598248"
"CH03024","Junction","Zürich Kollerwiese (Spw)","47.3660886","8.5189628"
"CH15353","Junction","Porrentruy Sud","47.4178997","7.0807305"
"CH15420","Junction","Pratteln Ost (Abzw)","47.5226003","7.6956218"
"CH15421","Junction","Pratteln Ueberwerfung","47.5233551","7.6790976"
"CH15434","Junction","Wohlen Süd (Abzw)","47.344929","8.2741348"
"CH08279","Junction","Wallisellen Belair (Vzw)","47.4133547","8.5844863"
"CH06002","Junction","Winterthur Seen","47.4874354","8.7668135"
"CH08284","Junction","Wallisellen Furt (Vzw)","47.4108311","8.6072592"
"CH15486","Junction","Wallisellen Ost (Abzw)","47.4106387","8.5999142"
"CH06032","Junction","Winterthur West (Abzw)","47.4924521","8.7173024"
"CH16647","Junction","Winterthur Wylandbrücke (Vzw)","47.4952674","8.7195935"
"CH15370","Junction","Yverdon Est (bif)","46.7801323","6.6469408"
"CH15437","Junction","Zug Süd","47.1735352","8.5156976"
"CH15365","Junction","Thun (Eigentumsgrenze)","46.7503503","7.6330037"
"CH15366","Junction","Travers Ouest","46.9395104","6.6723448"
"CH06007","Junction","Turbenthal","47.4373846","8.8438199"
"CH15367","Junction","Les Tuileries (saut km)","46.2506655","6.1472955"
"CH15177","Junction","Thalwil Nord (Abzw)","47.2989686","8.5611772"
"CH15481","Junction","Thalwil Süd (Abzw)","47.290043","8.5722085"
"CH15627","Junction","Zürich Lochergut (Abzw)","47.3766863","8.5186426"
"CH03047","Junction","Zürich Langstrasse","47.381261","8.5288896"
"CH03039","Junction","Zürich Mülligen","47.3966048","8.4704027"
"CH15494","Junction","Zürich Oerlikon Nord (Abzw)","47.4157681","8.5490477"
"CH03006","Junction","Zürich Oerlikon","47.41153","8.5441399"
"CH16145","Junction","Zürich Oerlikon Süd (Abzw)","47.4066041","8.5368917"
"CH15371","Junction","Zollikofen Nord (Abzw)","47.0076914","7.4658811"
"CH03007","Junction","Zürich Seebach","47.41875","8.5446602"
"CH15496","Junction","Zürich Seebach Ost (Abzw)","47.4188455","8.5473625"
"CH03003","Junction","Zürich Stadelhofen","47.3666098","8.5484891"
"CH10554","Junction","Zürich Stadelhofen West (Abzw)","47.3747867","8.5471263"
"CH03004","Junction","Zürich Tiefenbrunnen","47.3501247","8.5613898"
"CH10558","Junction","Zürich Tiefenbrunnen Nord(Spw)","47.3534033","8.5598292"
"CH03000","Junction","Zürich HB","47.3781767","8.5402123"
"CH10777","Junction","Wattwil Süd (Abzw)","47.2933437","9.0901256"
"CH09407","Junction","Weite","47.091473","9.5016209"
"CH08335","Junction","Winterthur Eichliacker (Vzw)","47.4881075","8.7137008"
"CH06001","Junction","Winterthur Grüze","47.4987547","8.7510552"
"CH06008","Junction","Wila","47.4177745","8.8484909"
"CH16199","Junction","Zürich Limmatquai Verl. Km-Axe","47.3778437","8.5414424"
"CH03025","Junction","Zürich Vorbahnhof","47.3844222","8.5161702"
"CH15760","Junction","Zürich Vorbahnhof Nord","47.3839666","8.5192517"
"CH15761","Junction","Zürich Vorbahnhof Ost","47.3830006","8.5205678"
"CH03026","Junction","Zürich Vorbahnhof West","47.3878352","8.5061659"
"CH03011","Junction","Zürich Wiedikon","47.3714772","8.5234854"
"CH03015","Junction","Zürich Wipkingen","47.3930389","8.5293824"
"CH03009","Junction","Zürich Wollishofen","47.3474402","8.533601"
"CH02220","Junction","Urdorf","47.3908833","8.4347307"
"CH02238","Junction","Mören (Vzw)","47.3772155","8.4329155"
"CH00046","Junction","Ruchfeld","47.5339333","7.612077"
"CH00019","Junction","Schweizerhalle","47.5315043","7.6623191"
"CH00026","Junction","Sissach","47.4627541","7.8120276"
"CH00010","Junction","Basel SBB","47.5474121","7.5895628"
"CH00032","Junction","Sommerau","47.4390214","7.8514814"
"CH00028","Junction","Tecknau","47.4457602","7.8876182"
"CH00037","Junction","Trimbach","47.3660522","7.9042854"
"CH00018","Junction","Birsfelden Hafen","47.5436633","7.6545673"
"CH00040","Junction","Basel SBB GB","47.5423575","7.6088323"
"CH00015","Junction","Basel SBB GB Ost","47.5426038","7.6157479"
"CH00038","Junction","Basel St. Jakob","47.5426131","7.6195323"
"CH00012","Junction","Basel Kleinhüningen Hafen","47.5780238","7.587733"
"CH00044","Junction","Basel SBB RB Nordkopf (Abzw)","47.5396484","7.6323643"
"CH00013","Junction","Basel SBB RB","47.5363586","7.6463823"
"CH00016","Junction","Basel St. Johann","47.5703063","7.5725294"
"CH00047","Junction","Basel SBB GB VL","47.5389256","7.6126119"
"CH00034","Junction","Buckten","47.408991","7.8478005"
"CH00031","Junction","Diepflingen","47.4495605","7.8377174"
"CH00022","Junction","Frenkendorf-Füllinsdorf","47.50147","7.7191105"
"CH00045","Junction","Gellert","47.5492183","7.6154372"
"CH00027","Junction","Gelterkinden","47.4658937","7.8476672"
"CH00021","Junction","Pratteln","47.5226686","7.6908173"
"CH00033","Junction","Rümlingen","47.4253793","7.8505419"
"CH00126","Junction","Porrentruy","47.4209164","7.0800773"
"CH00101","Junction","Reconvilier","47.2352383","7.2274179"
"CH00103","Junction","Sorvilier","47.2393538","7.3057936"
"CH00110","Junction","Soyhières","47.3891023","7.3707252"
"CH00124","Junction","St-Ursanne","47.3677029","7.1659571"
"CH00100","Junction","Tavannes","47.2198447","7.2016454"
"CH00114","Junction","Zwingen","47.4337992","7.530463"
"CH00200","Junction","Pieterlen","47.1714411","7.3401935"
"CH00135","Junction","Pontenet","47.2388483","7.2541593"
"CH00149","Junction","Steinbruch (Agl)","47.4256937","7.511167"
"CH00204","Junction","Selzach","47.200624","7.456635"
"CH00207","Junction","Solothurn","47.2041925","7.5426892"
"CH00206","Junction","Solothurn West","47.2067173","7.5319492"
"CH00148","Junction","Tunnelblock (Grenchenberg)","47.2317412","7.3859254"
"CH00223","Junction","Arch","47.1644671","7.4184892"
"CH00221","Junction","Büren an der Aare","47.1381571","7.3712428"
"CH00301","Junction","Rheinfelden","47.551214","7.7921689"
"CH00222","Junction","Rüti bei Büren","47.1545718","7.4021569"
"CH00227","Junction","Subingen","47.1935206","7.6112326"
"CH00210","Junction","Wangen an der Aare","47.2319565","7.6562345"
"CH00216","Junction","Wangen bei Olten","47.3414007","7.8683605"
"CH00260","Junction","Crémines-Zoo","47.2724198","7.4567838"
"CH00309","Junction","Brugg AG","47.4808598","8.2088446"
"CH01013","Junction","Pont-Céard","46.2868174","6.1627793"
"CH00313","Junction","Rheinfelden Augarten","47.5458782","7.7680319"
"CH01002","Junction","Russin","46.1883951","6.018036"
"CH00325","Junction","Schwaderloch","47.5862855","8.1443076"
"CH00308","Junction","Schinznach Dorf","47.4570946","8.1307788"
"CH00321","Junction","Sisseln","47.5456366","7.993095"
"CH00320","Junction","Stein-Säckingen","47.5416083","7.9488429"
"CH01003","Junction","Satigny","46.2142272","6.0376652"
"CH00323","Junction","Sulz","47.5565621","8.0904704"
"CH01015","Junction","Tannay","46.3076451","6.1811204"
"CH01011","Junction","Les Tuileries","46.2499463","6.1473375"
"CH01018","Junction","Vengeron (diag)","46.2461036","6.1473598"
"CH01006","Junction","Meyrin","46.2223355","6.0769008"
"CH00312","Junction","Villnachern (Spw)","47.4751073","8.1650386"
"CH01022","Junction","Versoix","46.2797272","6.1657413"
"CH01000","Junction","Zimeysa","46.2212396","6.0659853"
"CH01047","Junction","Morges-St-Jean","46.5181954","6.508044"
"CH01035","Junction","Allaman","46.4757535","6.3996971"
"CH01040","Junction","Prangins","46.3960044","6.2449809"
"CH01100","Junction","Le Pont","46.6686675","6.3247199"
"CH01033","Junction","Rolle","46.4627458","6.3364038"
"CH01039","Junction","St-Jean (bif)","46.205553","6.1277225"
"CH01036","Junction","St-Prex","46.4823169","6.455906"
"CH01046","Junction","Tolochenaz","46.4968401","6.475009"
"CH01147","Junction","Archy (bif)","46.5422334","6.5587921"
"CH01107","Junction","Arnex","46.6980777","6.5189072"
"CH01113","Junction","Bavois","46.6876799","6.5593349"
"CH01121","Junction","Pully","46.5109236","6.6594681"
"CH01118","Junction","Renens VD","46.5370425","6.5789353"
"CH01126","Junction","Rivaz","46.4742077","6.784595"
"CH01127","Junction","St-Saphorin","46.4725937","6.7970337"
"CH01103","Junction","Vallorbe","46.7124063","6.3705656"
"CH01102","Junction","Vallorbe-Frontière","46.7135938","6.3477617"
"CH01123","Junction","Villette VD","46.4954248","6.7073773"
"CH01116","Junction","Vufflens-la-Ville","46.576245","6.5307676"
"CH01304","Junction","Roche VD","46.3586964","6.9270528"
"CH01301","Junction","Territet","46.4263816","6.922707"
"CH01201","Junction","La Tour-de-Peilz","46.4554529","6.8595327"
"CH01403","Junction","St-Maurice","46.2163695","7.0020439"
"CH01401","Junction","St-Triphon","46.278799","6.9718959"
"CH01405","Junction","Vernayaz","46.138546","7.0383586"
"CH01423","Junction","Vionnaz","46.3150328","6.916203"
"CH01428","Junction","St-Gingolph (Suisse)","46.3921944","6.805932"
"CH01424","Junction","Vouvry","46.3372964","6.8975755"
"CH01604","Junction","Raron","46.3062744","7.8015106"
"CH01503","Junction","Riddes","46.1725112","7.2178544"
"CH01600","Junction","Salgesch","46.3091953","7.5781944"
"CH01502","Junction","Saxon","46.1493834","7.173436"
"CH01509","Junction","Sierre/Siders","46.2921216","7.5328256"
"CH01506","Junction","Sion","46.2275532","7.359197"
"CH01507","Junction","St-Léonard","46.2514886","7.4195682"
"CH01642","Junction","Staz. della Galleria Sempione","46.2723377","8.0934948"
"CH01602","Junction","Turtmann","46.3093314","7.699605"
"CH01605","Junction","Visp","46.2940291","7.8814655"
"CH02001","Junction","Zofingen","47.2880525","7.9431177"
"CH02000","Junction","Aarburg-Oftringen","47.3202685","7.9082226"
"CH02020","Junction","Rothenburg","47.0891837","8.2475614"
"CH02012","Junction","Rothenburg Dorf","47.09091","8.2731906"
"CH02003","Junction","Reiden","47.2414684","7.9687744"
"CH02009","Junction","Sempach-Neuenkirch","47.1160532","8.1959791"
"CH02007","Junction","Sursee","47.170795","8.0978939"
"CH02010","Junction","St. Erhard-Knutwil","47.1800819","8.0745815"
"CH02017","Junction","Waldibrücke","47.1078993","8.3197101"
"CH02006","Junction","Wauwil","47.183859","8.0190201"
"CH02113","Junction","Aarau","47.3913595","8.0512737"
"CH02114","Junction","Rupperswil","47.4032903","8.1269564"
"CH02100","Junction","Safenwil","47.3217579","7.9835182"
"CH02116","Junction","Schinznach Bad","47.4517852","8.1669486"
"CH02112","Junction","Schönenwerd SO","47.3714239","8.0001584"
"CH02030","Junction","Seon","47.346149","8.1588074"
"CH02043","Junction","Seon Nord","47.3531566","8.1602531"
"CH02103","Junction","Suhr","47.3716355","8.0822906"
"CH02121","Junction","Walterswil-Striegel","47.3199236","7.9632036"
"CH02115","Junction","Wildegg","47.4152751","8.1630199"
"CH02125","Junction","Wöschnau SBB","47.3857379","8.0290261"
"CH02224","Junction","Affoltern am Albis","47.2760704","8.446595"
"CH02202","Junction","Rotkreuz","47.1417642","8.4304953"
"CH02207","Junction","Sihlbrugg","47.2384279","8.5770589"
"CH02218","Junction","Sins","47.1883142","8.3978309"
"CH02227","Junction","Steinhausen","47.1945815","8.4784366"
"CH02229","Junction","Urdorf Weihermatt","47.38097","8.4303425"
"CH02205","Junction","Walchwil","47.098687","8.5169344"
"CH02213","Junction","Wohlen AG","47.348464","8.2697923"
"CH02204","Junction","Zug","47.173707","8.5150493"
"CH02231","Junction","Zug Oberwil","47.1476836","8.5099405"
"CH02243","Junction","Birmensdorf Industrie","47.3642371","8.4316589"
"CH02247","Junction","Birr","47.4358467","8.2176648"
"CH02239","Junction","Dottikon Umspannanlage","47.3629227","8.249182"
"CH02240","Junction","Goldau Mühlefluh (Verzw)","47.0586597","8.5443146"
"CH02241","Junction","Rotsee (Verzw)","47.074067","8.3199743"
"CH03008","Junction","Zürich Affoltern","47.4209089","8.5085826"
"CH03001","Junction","Zürich Altstetten","47.3914831","8.4889626"
"CH03010","Junction","Zürich Enge","47.3640988","8.5308206"
"CH03016","Junction","Zürich Flughafen","47.4503856","8.5624018"
"CH02300","Junction","Zug Postplatz","47.1682757","8.5169374"
"CH03020","Junction","Zürich Hardbrücke","47.3851979","8.5171262"
"CH03036","Junction","Zürich Hardbrücke West (Spw)","47.3890081","8.5036897"
"CH03012","Junction","Zürich Herdern Abstellgruppe","47.3907184","8.5014143"
"CH03100","Junction","Zollikon","47.3373346","8.5697406"
"CH03102","Junction","Erlenbach ZH","47.305792","8.5915224"
"CH03103","Junction","Herrliberg-Feldmeilen","47.2818266","8.6127334"
"CH03101","Junction","Küsnacht ZH","47.3191566","8.5806378"
"CH03104","Junction","Meilen","47.2698112","8.6443119"
"CH03207","Junction","Richterswil","47.208375","8.7074814"
"CH03121","Junction","Rüti ZH","47.2604838","8.8540795"
"CH03201","Junction","Rüschlikon","47.3071319","8.5551627"
"CH03110","Junction","Rapperswil SG","47.2248872","8.8167449"
"CH03119","Junction","Schänis","47.1576571","9.0439762"
"CH03115","Junction","Schmerikon","47.2251601","8.943382"
"CH03127","Junction","Schwerzenbach ZH","47.3843858","8.6586736"
"CH03107","Junction","Stäfa","47.2405272","8.7216529"
"CH03147","Junction","Stettbach","47.3972154","8.5961448"
"CH03135","Junction","Steg","47.3538525","8.9323718"
"CH03139","Junction","Tann-Dürnten","47.2683776","8.8527227"
"CH03202","Junction","Thalwil","47.2959814","8.5647694"
"CH03108","Junction","Uerikon","47.2358608","8.7526252"
"CH03105","Junction","Uetikon","47.2590301","8.6787871"
"CH03125","Junction","Uster","47.350369","8.7187092"
"CH03116","Junction","Uznach","47.2242828","8.9806908"
"CH03206","Junction","Wädenswil","47.2293073","8.6752163"
"CH03111","Junction","Winkel am Zürichsee","47.2972078","8.5989883"
"CH03138","Junction","Wald ZH","47.2726905","8.9139998"
"CH03129","Junction","Wallisellen","47.4127231","8.5919282"
"CH03123","Junction","Wetzikon ZH","47.3180316","8.7922897"
"CH03292","Junction","Altmatt","47.131652","8.6961468"
"CH03294","Junction","Riedmatt SZ","47.1967053","8.7121021"
"CH03223","Junction","Reichenburg","47.1726982","8.9823226"
"CH03282","Junction","Rothenthurm","47.1057946","8.6746733"
"CH03311","Junction","Rümlang","47.4540656","8.5327673"
"CH03238","Junction","Rüti GL","46.934546","9.013039"
"CH03286","Junction","Samstagern","47.1915525","8.6859871"
"CH03281","Junction","Sattel-Aegeri","47.0798609","8.627252"
"CH03222","Junction","Schübelbach-Buttikon","47.1763898","8.938781"
"CH03233","Junction","Schwanden GL","46.9968522","9.0774657"
"CH03285","Junction","Schindellegi-Feusisberg","47.1764093","8.7093778"
"CH03221","Junction","Siebnen-Wangen","47.1826707","8.9007136"
"CH03280","Junction","Steinerberg","47.0522123","8.5852776"
"CH03295","Junction","Wilen bei Wollerau","47.1975843","8.7343329"
"CH03288","Junction","Wollerau","47.1954376","8.7250098"
"CH03225","Junction","Ziegelbrücke","47.1361559","9.0600517"
"CH03422","Junction","Altenburg-Rheinau","47.6635965","8.5968616"
"CH03408","Junction","Rekingen AG","47.5699714","8.3271257"
"CH03410","Junction","Rietheim","47.6007501","8.2773279"
"CH03339","Junction","Riet (Verzw)","47.4389701","8.5650548"
"CH03415","Junction","Rümikon AG","47.5653839","8.3736669"
"CH03404","Junction","Rafz","47.6037968","8.5434514"
"CH03429","Junction","Schlattingen","47.6666243","8.7704337"
"CH03317","Junction","Schöfflisdorf-Oberweningen","47.4979714","8.4118123"
"CH03427","Junction","Schlatt TG","47.6794998","8.6875108"
"CH03424","Junction","Schaffhausen","47.6982815","8.6327558"
"CH03440","Junction","Schaffhausen GB","47.7099048","8.6411384"
"CH03316","Junction","Steinmaur","47.4899868","8.4468578"
"CH03335","Junction","Witzberg (Agl)","47.3739649","8.7700658"
"CH03406","Junction","Weiach-Kaiserstuhl","47.5636534","8.4255407"
"CH03405","Junction","Zweidlen","47.5704482","8.4679189"
"CH03409","Junction","Bad Zurzach","47.5883134","8.2955878"
"CH03504","Junction","Baden","47.4764243","8.3077095"
"CH04038","Junction","Bossy Moulins (embr)","46.8232962","6.9711289"
"CH04003","Junction","Bossière","46.5097485","6.6993218"
"CH03527","Junction","Buchs-Dällikon","47.4534053","8.4356017"
"CH04012","Junction","Puidoux","46.4938412","6.7656865"
"CH04000","Junction","Pully-Nord","46.5146815","6.6579876"
"CH03507","Junction","Zürich RB Limmattal","47.4228442","8.3773122"
"CH03526","Junction","Regensdorf-Watt","47.4365635","8.4720849"
"CH04023","Junction","Romont FR","46.6935083","6.9118114"
"CH04028","Junction","Rosé","46.7826335","7.0619686"
"CH03509","Junction","Schlieren","47.3991764","8.4472451"
"CH03502","Junction","Siggenthal-Würenlingen","47.52069","8.24066"
"CH04022","Junction","Siviriez","46.6592666","6.8853485"
"CH03503","Junction","Turgi","47.4917573","8.2534586"
"CH04021","Junction","Vauderens","46.6214554","6.8500376"
"CH04030","Junction","Villars-sur-Glâne","46.7898298","7.1163856"
"CH04015","Junction","Vevey-Funi","46.4682767","6.8354433"
"CH04024","Junction","Villaz-St-Pierre","46.7205804","6.9606429"
"CH03505","Junction","Wettingen","47.4596382","8.3160062"
"CH03529","Junction","Würenlos","47.4457595","8.3576678"
"CH04126","Junction","Avenches","46.8846016","7.0409253"
"CH04108","Junction","Bern Europaplatz","46.9442098","7.4061176"
"CH04102","Junction","Schmitten FR","46.8629414","7.2539204"
"CH04104","Junction","Thörishaus Station","46.9046257","7.3570288"
"CH04115","Junction","Thörishaus Dorf","46.8935692","7.3518666"
"CH04113","Junction","Wünnewil","46.8718609","7.2806541"
"CH04130","Junction","Yvonand","46.8008755","6.7466873"
"CH04222","Junction","St-Blaise CFF","47.0145759","6.9821102"
"CH04145","Junction","Léchelles Tanklager (embr)","46.8307128","7.0401311"
"CH04215","Junction","Travers","46.9424115","6.6765617"
"CH04142","Junction","Trey","46.7799571","6.9162509"
"CH04229","Junction","Tüscherz","47.1150077","7.1973184"
"CH04228","Junction","Twann","47.0936641","7.1564975"
"CH04204","Junction","Vaumarcus","46.8776432","6.7575792"
"CH04211","Junction","Les Verrières","46.9053267","6.4793928"
"CH04210","Junction","Les Verrières-Frontière","46.8991654","6.4590026"
"CH04200","Junction","Yverdon-les-Bains","46.7815452","6.640944"
"CH04300","Junction","Biel/Bienne","47.1328979","7.2429106"
"CH04340","Junction","Biel/Bienne RB","47.1432755","7.2682051"
"CH04314","Junction","La Chaux-de-Fonds","47.0983744","6.8259827"
"CH04321","Junction","La Chaux-de-Fonds Les Forges","47.0913353","6.8127803"
"CH04312","Junction","Renan BE","47.1257205","6.9253821"
"CH04302","Junction","Reuchenette-Péry","47.1897391","7.2470247"
"CH04304","Junction","Sonceboz-Sombeval","47.1951484","7.1687636"
"CH04310","Junction","St-Imier","47.1517111","7.0012239"
"CH04311","Junction","Sonvilier","47.1413421","6.9693528"
"CH04309","Junction","Villeret","47.1602037","7.0196752"
"CH04404","Junction","Aarberg","47.0445413","7.2786926"
"CH04488","Junction","Riedbach","46.9411543","7.33405"
"CH04487","Junction","Rosshäusern","46.9343418","7.2968699"
"CH04480","Junction","St-Blaise-Lac","47.0121043","6.9846865"
"CH04412","Junction","Schüpfen","47.0418596","7.386002"
"CH04441","Junction","Studen BE","47.1104381","7.3017496"
"CH04413","Junction","Suberg-Grossaffoltern","47.0587821","7.3390049"
"CH04410","Junction","Zollikofen","47.0018259","7.4629112"
"CH05113","Junction","Altdorf UR","46.8757387","8.6315754"
"CH05115","Junction","Amsteg-Silenen","46.781002","8.6721055"
"CH05006","Junction","Schwyz","47.0263972","8.6321517"
"CH05111","Junction","Sisikon","46.949254","8.6207487"
"CH05005","Junction","Steinen","47.0476686","8.6074493"
"CH05118","Junction","Wassen","46.7016414","8.5970261"
"CH04490","Junction","Zihlbrücke","47.0092771","7.0305732"
"CH05144","Junction","Zgraggen (Spw)","46.7577184","8.6466864"
"CH05201","Junction","Airolo","46.527526","8.6086198"
"CH05202","Junction","Ambrì-Piotta","46.5107638","8.6899279"
"CH05216","Junction","Rivera-Bironico","46.1239766","8.9252862"
"CH05203","Junction","Rodi-Fiesso","46.4902515","8.7401625"
"CH05350","Junction","Sattel","47.0816192","8.6339434"
"CH05241","Junction","Sordo (c bin)","46.5175571","8.6475628"
"CH05239","Junction","Bellinzona S. Paolo","46.2035997","9.038477"
"CH05218","Junction","Taverne-Torricella","46.0566856","8.9303304"
"CH05246","Junction","Vigana (c bin)","46.1507036","8.9808972"
"CH06013","Junction","Aadorf","47.4881182","8.9033014"
"CH05405","Junction","Quartino","46.1512981","8.8873312"
"CH05412","Junction","Riazzino","46.1753363","8.8863974"
"CH06006","Junction","Rämismühle-Zell","47.441539","8.8191373"
"CH06005","Junction","Rikon","47.4450098","8.7963321"
"CH05408","Junction","Ranzo-S. Abbondio","46.1169978","8.7765377"
"CH05415","Junction","S. Antonino","46.1590491","8.9695206"
"CH06009","Junction","Saland","47.3942114","8.8542214"
"CH06010","Junction","Sirnach","47.4619971","9.0004743"
"CH06003","Junction","Sennhof-Kyburg","47.4651769","8.7603463"
"CH05407","Junction","S. Nazzaro","46.1351577","8.8070587"
"CH05401","Junction","Tenero","46.1774675","8.8502262"
"CH06125","Junction","Altnau","47.6213679","9.265918"
"CH06047","Junction","Andelfingen","47.5937662","8.6780016"
"CH06015","Junction","Räterschen","47.4986819","8.7950171"
"CH06036","Junction","Reutlingen","47.5296594","8.7521481"
"CH06121","Junction","Romanshorn","47.5655229","9.3793713"
"CH06018","Junction","Rickenbach-Attikon","47.5353574","8.789175"
"CH06035","Junction","Schottikon","47.5001175","8.8117191"
"CH06020","Junction","Seuzach","47.535767","8.7388834"
"CH06039","Junction","Schloss Laufen am Rheinfall","47.6765657","8.614269"
"CH06024","Junction","Stammheim","47.6348813","8.7887501"
"CH06022","Junction","Thalheim-Altikon","47.5696214","8.7576432"
"CH06118","Junction","Triboltingen","47.662896","9.1087605"
"CH06122","Junction","Uttwil","47.5860238","9.339703"
"CH06017","Junction","Wiesendangen","47.525543","8.776038"
"CH06105","Junction","Weinfelden","47.5662243","9.1063682"
"CH06117","Junction","Weinfelden KVA Thurgau (Abzw)","47.5582652","9.1272165"
"CH06044","Junction","Winterthur Töss","47.4898064","8.7093099"
"CH06038","Junction","Winterthur Wallrüti","47.5167217","8.7608822"
"CH06043","Junction","Winterthur Wülflingen","47.5064359","8.6809295"
"CH06115","Junction","Frauenfeld Zuckerrüben","47.5541876","8.8752032"
"CH06144","Junction","Romanshorn Süd (Abzw)","47.5552588","9.3778003"
"CH06145","Junction","Romanshorn West (Abzw)","47.5582338","9.3707486"
"CH06207","Junction","Schwarzenbach SG","47.4451876","9.0684307"
"CH06195","Junction","Siegershausen","47.610917","9.16826"
"CH06136","Junction","Steckborn","47.6645046","8.9810331"
"CH06148","Junction","St. Katharinental","47.6875635","8.73204"
"CH06139","Junction","Stein am Rhein","47.656111","8.8550201"
"CH06132","Junction","Tägerwilen-Gottlieben","47.6596148","9.1329793"
"CH06198","Junction","Tägerwilen Dorf","47.6537212","9.1395596"
"CH06168","Junction","Tägerschen","47.5093639","9.0247933"
"CH06183","Junction","Tobel-Affeltrangen","47.5213014","9.0337094"
"CH06200","Junction","Wattwil","47.2994773","9.0864824"
"CH06191","Junction","Weinfelden Süd","47.5614338","9.0949064"
"CH06206","Junction","Wil SG","47.4624132","9.0409931"
"CH06220","Junction","Algetshausen-Henau","47.4485483","9.1099422"
"CH06306","Junction","Rorschach Hafen","47.4785899","9.4929233"
"CH06291","Junction","Schachen (Herisau)","47.3851357","9.2432021"
"CH06302","Junction","St. Gallen","47.423179","9.3698967"
"CH06301","Junction","St. Gallen Bruggen","47.4072029","9.3296549"
"CH06303","Junction","St. Gallen St. Fiden","47.4345404","9.3934438"
"CH06300","Junction","St. Gallen Winkeln","47.4039294","9.3008603"
"CH06214","Junction","Sitterdorf","47.5052184","9.2489969"
"CH06217","Junction","Sulgen","47.538804","9.1836944"
"CH06208","Junction","Uzwil","47.436444","9.1309918"
"CH06313","Junction","Rheineck","47.4668859","9.5909126"
"CH06318","Junction","Rebstein-Marbach","47.39264","9.5867541"
"CH06311","Junction","Rorschach","47.478002","9.5051413"
"CH06322","Junction","Rorschach Stadt","47.4755923","9.4893637"
"CH06392","Junction","St. Gallen Haggen","47.407757","9.3381464"
"CH07000","Junction","Bern","46.9488323","7.4391309"
"CH06394","Junction","Roggwil-Berg","47.4855903","9.3920228"
"CH07005","Junction","Rubigen","46.8991697","7.5453684"
"CH07071","Junction","Seftigen","46.7868467","7.5402889"
"CH06397","Junction","Steinebrunn","47.5315329","9.3498585"
"CH07073","Junction","Thurnen","46.813561","7.5138777"
"CH07075","Junction","Toffen","46.8584713","7.4960333"
"CH07070","Junction","Uetendorf","46.7749242","7.5728469"
"CH07009","Junction","Uttigen","46.7943105","7.5826304"
"CH07078","Junction","Wabern bei Bern","46.9286628","7.4458888"
"CH07007","Junction","Wichtrach","46.8416121","7.5688558"
"CH06393","Junction","Wittenbach","47.462849","9.3885483"
"CH07044","Junction","Wankdorf (Abzw)","46.9653249","7.4721375"
"CH07286","Junction","Ringoldingen","46.6575586","7.5245739"
"CH07095","Junction","Schwarzwasserbrücke","46.8627941","7.3623751"
"CH07089","Junction","Schwarzenburg","46.8191098","7.3425616"
"CH07289","Junction","Spiezmoos Süd","46.6916811","7.6613751"
"CH07100","Junction","Thun","46.7548527","7.6296058"
"CH07094","Junction","Uetendorf Allmend","46.7731212","7.594884"
"CH07291","Junction","Weissenbach","46.6035656","7.3742958"
"CH07294","Junction","Weissenburg","46.6592952","7.4759204"
"CH07298","Junction","Wimmis","46.6757222","7.6355975"
"CH07290","Junction","Zweisimmen","46.5534826","7.3748619"
"CH07472","Junction","Ausserberg","46.3123482","7.844167"
"CH07464","Junction","Rarnerkumme (Spw)","46.3203701","7.8026302"
"CH07480","Junction","Reichenbach im Kandertal","46.6251216","7.6900627"
"CH08001","Junction","Schönbühl SBB","47.0189422","7.4989279"
"CH07483","Junction","Spiez","46.6863957","7.6801031"
"CH07463","Junction","Tunnelstation Lötschberg (Spw)","46.4400082","7.7158029"
"CH08085","Junction","Aefligen","47.0955935","7.5592532"
"CH08005","Junction","Burgdorf","47.0607007","7.6216945"
"CH08101","Junction","Roggwil-Wynau","47.2516397","7.8149164"
"CH08103","Junction","Rothrist","47.3064557","7.8793965"
"CH08007","Junction","Riedtwil","47.1401579","7.693276"
"CH08049","Junction","Rütti (Abzw)","46.9899879","7.4661615"
"CH08086","Junction","Utzenstorf","47.1295371","7.5536276"
"CH08047","Junction","Wanzwil (Abzw)","47.198245","7.6992129"
"CH08087","Junction","Wiler","47.152297","7.5559333"
"CH08006","Junction","Wynigen","47.1051748","7.6635069"
"CH08186","Junction","Rohrbach","47.1372635","7.8134742"
"CH08217","Junction","Schachen LU","47.0379734","8.1432589"
"CH08211","Junction","Schüpfheim","46.9506474","8.0151506"
"CH08205","Junction","Signau","46.9196351","7.7254632"
"CH08256","Junction","Stalden i.E.","46.8708933","7.622869"
"CH08251","Junction","Steffisburg","46.773","7.6151606"
"CH08250","Junction","Schwäbis","46.7626704","7.6192846"
"CH08201","Junction","Tägertschi","46.8822863","7.5808366"
"CH08208","Junction","Trubschachen","46.9217","7.846142"
"CH08262","Junction","Walkringen","46.947537","7.6188902"
"CH08200","Junction","Worb SBB","46.91523","7.5648516"
"CH08215","Junction","Wolhusen","47.0554879","8.0797541"
"CH08209","Junction","Wiggen","46.8998681","7.9013912"
"CH08216","Junction","Werthenstein","47.0570251","8.1018632"
"CH08203","Junction","Zäziwil","46.8997523","7.6628821"
"CH08264","Junction","Schafhausen i.E.","46.9944674","7.6567566"
"CH08272","Junction","Sumiswald-Grünen","47.0254433","7.7371533"
"CH08295","Junction","Willisau","47.1227207","7.9967181"
"CH08296","Junction","Daiwil","47.0969855","8.0168023"
"CH08294","Junction","Gettnau","47.1400944","7.9701401"
"CH08271","Junction","Grünenmatt","47.0084003","7.7239042"
"CH08267","Junction","Ramsei","46.996877","7.7099301"
"CH08293","Junction","Zell LU","47.1367542","7.926382"
"CH08268","Junction","Zollbrück","46.9757166","7.7413006"
"CH09044","Junction","Rossriet (Spw)","46.9979255","9.535424"
"CH09004","Junction","Bad Ragaz","47.0103095","9.505225"
"CH09040","Junction","Trimmis (Spw)","46.9091439","9.5534198"
"CH09001","Junction","Zizers SBB","46.9322124","9.5595697"
"CH09234","Junction","Einsiedeln Nord (Abzw)","47.140164","8.7489506"
"CH09406","Junction","Sevelen","47.1253748","9.4938353"
"CH09420","Junction","Tiefenwinkel (Verzw)","47.1157112","9.1890205"
"CH09404","Junction","Buchs SG","47.168412","9.4786367"
"CH09413","Junction","Flums","47.0966167","9.3479292"
"CH09405","Junction","Räfis-Burgerau","47.1499482","9.4851851"
"CH09401","Junction","Rüthi SG","47.2867391","9.5360569"
"CH09411","Junction","Sargans","47.0448235","9.4462605"
"CH09402","Junction","Salez-Sennwald","47.2414491","9.5023357"
"CH09421","Junction","Sargans Schleife (Verzw)","47.0418657","9.4650527"
"CH09408","Junction","Trübbach","47.0715831","9.4803456"
"CH09416","Junction","Unterterzen","47.1138569","9.2550184"
"CH15299","Junction","Aespli","47.0283997","7.5235281"
"CH09481","Junction","Burgdorf Steinhof West (Spw)","47.0529372","7.6169888"
"CH10020","Junction","Bern Europaplatz Nord","46.9461655","7.4058714"
"CH15166","Junction","Buchhalde (Spw)","47.4999413","8.047338"
"CH15168","Junction","Horchental","47.4735275","9.440571"
"CH15170","Junction","Kirchmatt (Spw)","47.4862742","8.0703036"
"CH10179","Junction","Laupen BE Gleisende","46.902607","7.2380203"
"CH15162","Junction","Münchwilen AG (Abzw)","47.5422987","7.9696113"
"CH15171","Junction","Niederfeld (Spw)","47.5294455","7.9953168"
"CH15176","Junction","Schwalmenacker (Spw)","47.5032109","8.7366727"
"CH10153","Junction","Spiez (KM-Sprung)","46.6836956","7.6839754"
"CH09474","Junction","Thurnen Süd (Ausw)","46.8076997","7.5154021"
"CH15178","Junction","Tössmühle","47.4738214","8.7062105"
"CH15298","Junction","Zürich HB Cargo GV","47.3843886","8.5144264"
"CH15145","Junction","Zürich Hauptwerkstätte","47.388119","8.502369"
"CH15163","Junction","Zürich HB Museumstrasse","47.3784082","8.5407142"
"CH15164","Junction","Zürich HB Nord","47.3843517","8.5234714"
"CH15179","Junction","Zürich Viadukt (Abzw)","47.384583","8.5207343"
"CH15374","Junction","Al Sasso","46.1466113","8.9578355"
"CH15375","Junction","Basel Bad Rbf KH (Abzw)","47.5834637","7.6019108"
"CH15333","Junction","Iselle portail tunnel","46.2076843","8.2005545"
"CH15334","Junction","Kerzers Süd (Abzw)","46.9737624","7.1924807"
"CH15347","Junction","Neuchâtel-Vauseyon (bif)","46.9919374","6.9196127"
"CH15356","Junction","Romont Est (racc)","46.7021427","6.923889"
"CH15357","Junction","Sandacher (Spw)","47.0598852","7.574783"
"CH15358","Junction","Sonceboz-Sombeval Ouest","47.1931794","7.1533373"
"CH15444","Junction","Altenrhein","47.482747","9.5475097"
"CH15447","Junction","Heitersberglinie Ost (Abzw)","47.4380614","8.3376378"
"CH15404","Junction","Hübeli LU","47.084509","8.2787587"
"CH15448","Junction","Kaisten Ost (Abzw)","47.5532083","8.0457643"
"CH15409","Junction","Lugano Paradiso (c bin)","45.9891138","8.9509497"
"CH15412","Junction","Massagno Nord","46.0178229","8.9326541"
"CH15413","Junction","Monte Ceneri Nord","46.1442252","8.9257611"
"CH15414","Junction","Melide Centrale (bif)","45.9651934","8.9476239"
"CH15419","Junction","Pino confine","46.1036393","8.7564662"
"CH15427","Junction","Stabio (Confine di proprietà)","45.8379852","8.9092356"
"CH15527","Junction","Allmendingen BE Süd (Spw)","46.9171473","7.5336967"
"CH15515","Junction","Baltschieder (Agl)","46.2954044","7.8719487"
"CH15542","Junction","Brüglen (Spw)","47.1331523","8.4495484"
"CH15460","Junction","Glattbrugg Süd (Abzw)","47.4265453","8.5589696"
"CH15561","Junction","Malley (B)","46.5249989","6.6078282"
"CH15457","Junction","Neugut West bei DUE (Abzw)","47.4031674","8.6021418"
"CH15592","Junction","Silberen (Abzw)","47.4213548","8.3869774"
"CH15475","Junction","Tanklager Frevlig","47.479614","8.4986802"
"CH15476","Junction","Tankanlage Rümlang","47.4366639","8.5494843"
"CH15477","Junction","Tanklager Otelfingen","47.4601893","8.404128"
"CH15478","Junction","Tanklager Oberhasli","47.4620279","8.4840052"
"CH15479","Junction","Tanklager O'fingen (Gleisende)","47.4574996","8.4157031"
"CH15480","Junction","Tanklager Oberhasli (Gleisend)","47.4569446","8.4647814"
"CH15540","Junction","Waltenschwil","47.3270719","8.2972958"
"CH15482","Junction","Zürich Aussersihl (Abzw)","47.3788621","8.5200572"
"CH15495","Junction","Zürich Hottingen (Spw)","47.368082","8.5618662"
"CH15974","Junction","Pollegio Nord (dira)","46.3679948","8.9321617"
"CH15715","Junction","Pozzo Negro (dira)","46.3725834","8.9254073"
"CH15731","Junction","Rank (Spw)","47.2896449","7.8524588"
"CH15712","Junction","Rynächt (Spw)","46.8383172","8.6451981"
"CH16019","Junction","Spiez (Abzw)","46.68969","7.6704687"
"CH15720","Junction","Vezia (bif)","46.0256932","8.9346556"
"CH15730","Junction","Viktoria (Spw)","46.3136024","7.8748736"
"CH15778","Junction","Vernier-Meyrin Cargo","46.2223923","6.0857112"
"CH15666","Junction","Wengi-Ey (Abzw)","46.6124765","7.6742442"
"CH15756","Junction","Würenlingen Zwischenlager(Agl)","47.5355069","8.2437735"
"CH15994","Junction","Zug Fridbach","47.1565811","8.5122918"
"CH15993","Junction","Baar Lindenpark","47.1831367","8.5170585"
"CH15992","Junction","Baar Neufeld","47.1884929","8.5177808"
"CH15757","Junction","Biel Mett (Abzw)","47.1476699","7.2762835"
"CH15647","Junction","Bern Weyermannshaus (Spw)","46.9492222","7.4137284"
"CH15733","Junction","Camorino (dira)","46.1549773","8.9868667"
"CH15995","Junction","Cham Alpenblick","47.1822824","8.4714633"
"CH15735","Junction","Falkenhaus (Spw)","46.9024386","7.4841105"
"CH15669","Junction","Ferden (Spw)","46.4029526","7.7372627"
"CH15663","Junction","Fribourg Nord","46.8117085","7.1536023"
"CH15667","Junction","Frutigen Nordportal (Abzw)","46.5777012","7.6487589"
"CH15717","Junction","Giustizia (dira)","46.3235263","8.9821984"
"CH15643","Junction","Gümligen Süd (Abzw)","46.929947","7.5130316"
"CH15732","Junction","Heimbach (Spw)","47.0473057","8.2995017"
"CH15996","Junction","Hünenberg Zythus","47.1736076","8.4500952"
"CH15997","Junction","Root D4","47.1048254","8.3737604"
"CH15758","Junction","La Lance (diag)","46.8595387","6.7413504"
"CH16163","Junction","Tägermoos (Abzw)","47.6569951","9.1496482"
"CH16169","Junction","Thun Schadau","46.7470498","7.6310294"
"CH16218","Junction","Winterthur Hegi","47.5014855","8.7689472"
"CH16187","Junction","Zug Schutzengel","47.1737249","8.5072422"
"CH16144","Junction","Zürich HB Löwenstrasse","47.3778062","8.5391154"
"CH16146","Junction","Adelrain (Abzw)","46.568193","7.6441552"
"CH16270","Junction","Arbon Seemoosriet","47.5211953","9.4250195"
"CH16278","Junction","Bachtele (Trimstein)","46.8990945","7.5767838"
"CH16154","Junction","Bern Brünnen Westside","46.944037","7.3752781"
"CH16161","Junction","Bern Wankdorf","46.9678258","7.4654778"
"CH16251","Junction","Rynächt (Abzw)","46.8434016","8.6429016"
"CH16250","Junction","Rynächt Nord","46.8633479","8.6354669"
"CH16168","Junction","Sarè (dira)","46.0475795","8.9472424"
"CH16279","Junction","Schlossberg (Signau)","46.9071517","7.7122048"
"CH16280","Junction","Schüpbach (Signau)","46.9323427","7.7346455"
"CH16162","Junction","Siviriez (saut km)","46.6435365","6.8724141"
"CH16271","Junction","Steinach","47.5009559","9.4420034"
"CH16147","Junction","St. German (Abzw)","46.3061655","7.8440949"
"CH16179","Junction","Steinen Nord (Spw)","47.0504664","8.6000852"
"CH16354","Junction","Wolhusen Weid","47.0655449","8.0691667"
"CH16987","Junction","Winklen (Spw)","46.6012789","7.6584573"
"CH16353","Junction","Baldegg Kloster","47.180616","8.2805975"
"CH16951","Junction","Breitenacker (Spw)","46.9190772","7.4624631"
"CH16856","Junction","Büel (Spw)","46.5052124","7.6752511"
"CH17142","Junction","Lancy-Bachet","46.1743329","6.1293621"
"CH16407","Junction","Degersheim West (Abzw)","47.35969","9.177606"
"CH16451","Junction","Eggenschwand (Spw)","46.4812875","7.665903"
"CH16946","Junction","Eysins (embr)","46.3813982","6.2040149"
"CH17131","Junction","Pratteln Salina Raurica","47.5305881","7.7098891"
"CH17373","Junction","Rüdlen (Km-Sprung)","46.6147303","7.6764932"
"CH16882","Junction","Sierre/Siders (saut km)","46.3034682","7.5578437"
"CH16933","Junction","Sigirino","46.0754771","8.9284543"
"CH16447","Junction","Spiez Niesenbrücke (Abzw)","46.6844902","7.6824585"
"CH16857","Junction","Stockgraben (Spw)","46.3592604","7.7593952"
"CH17112","Junction","Walchwil Hörndli","47.1084611","8.5047776"
"CH18452","Junction","Prilly-Malley","46.526692","6.6026289"
"CH18392","Junction","Schwarzenburg Gleisende","46.8186642","7.341068"
"CH18121","Junction","St. Gallen St. Fiden Nord","47.4424265","9.3980309"
"CH18303","Junction","Sedrun SMF","46.6658503","8.7701994"
"CH17519","Junction","Stabio","45.8497097","8.9439422"
"CH18459","Junction","Steinhausen Rigiblick","47.1878638","8.4797039"
"CH17527","Junction","Zug Casino","47.1623181","8.5152027"
"CH17510","Junction","Zweisimmen Gleisende","46.5507245","7.3756372"
"CH18394","Junction","Bönigen Gleisende","46.6882066","7.8911997"
"CH18393","Junction","Bönigen Werkstätte BLS","46.6884767","7.8886149"
"CH18120","Junction","Bruggwaldtunnel (Abzw)","47.4457914","9.3972836"
"CH18156","Junction","Fischerhölzli","47.6740656","8.60446"
"CH18304","Junction","Faido SMF","46.4978372","8.8106279"
"CH18214","Junction","Gümmenen Viadukt","46.9338383","7.2478879"
"CH18155","Junction","Jestetten Süd","47.6422794","8.5666369"
"CH18048","Junction","Kreuzlingen Hafen Grenze","47.6544446","9.1769393"
"CH18047","Junction","Kreuzlingen Grenze","47.6543304","9.176698"
"CH18475","Junction","Mendrisio S. Martino","45.8772202","8.9830927"
"CH18307","Junction","Pollegio binario di sorpasso","46.3593937","8.9510909"
"CH19032","Junction","Bellach Industrie","47.2084314","7.4954063"
"CH18771","Junction","Biel/Bienne Bözingenfeld/Champ","47.1583823","7.2946481"
"CH19041","Junction","Brunegg","47.4204148","8.2216901"
"CH18794","Junction","Schneit","47.5035804","8.847436"
"CH18963","Junction","Solothurn Allmend","47.2088863","7.5214271"
"CH19176","Junction","Zürich Affoltern (Abzw)","47.4243159","8.4957435"
"CH19698","Junction","Ranconnex","46.12272","7.11775"
"CH19667","Junction","Biel Produktionsanlage Ost","47.1442817","7.2692362"
"CH19697","Junction","Pramont","46.2679906","7.4678099"
"CH19633","Junction","Rosshäuserntunnel Portal Ost","46.9322379","7.2891041"
"CH19194","Junction","St. Katharinental West","47.684736","8.7218084"
